[{"type_de_point": "Distributeur automatique de billets", "adresse": null, "arrondissement": null, "horaire": null, "acces_pmr": null, "relais_bebe": null, "geo_point_2d": {"lon": 2.35233389412531, "lat": 48.6745190321045}, "commune": "Savigny-sur-Orge", "code_commune": "91589", "departement": "Essonne", "code_departement": "91", "region": "\u00cele-de-France", "code_region": "11"},{"type_de_point": "Distributeur automatique de billets", "adresse": null, "arrondissement": null, "horaire": null, "acces_pmr": null, "relais_bebe": null, "geo_point_2d": {"lon": -1.67174984224417, "lat": 48.1074109465919}, "commune": "Rennes", "code_commune": "35238", "departement": "Ille-et-Vilaine", "code_departement": "35", "region": "Bretagne", "code_region": "53"},{"type_de_point": "Distributeur automatique de billets", "adresse": null, "arrondissement": null, "horaire": null, "acces_pmr": null, "relais_bebe": null, "geo_point_2d": {"lon": -3.87577781960422, "lat": 48.5050825474894}, "commune": "Pleyber-Christ", "code_commune": "29163", "departement": "Finist\u00e8re", "code_departement": "29", "region": "Bretagne", "code_region": "53"},{"type_de_point": "Distributeur automatique de billets", "adresse": null, "arrondissement": null, "horaire": null, "acces_pmr": null, "relais_bebe": null, "geo_point_2d": {"lon": -0.00553176222499019, "lat": 49.3221079725944}, "commune": "Villers-sur-Mer", "code_commune": "14754", "departement": "Calvados", "code_departement": "14", "region": "Normandie", "code_region": "28"},{"type_de_point": "Distributeur automatique de billets", "adresse": null, "arrondissement": null, "horaire": null, "acces_pmr": null, "relais_bebe": null, "geo_point_2d": {"lon": 2.21464671762689, "lat": 48.8251139203951}, "commune": "S\u00e8vres", "code_commune": "92072", "departement": "Hauts-de-Seine", "code_departement": "92", "region": "\u00cele-de-France", "code_region": "11"},{"type_de_point": "Distributeur automatique de billets", "adresse": null, "arrondissement": null, "horaire": null, "acces_pmr": null, "relais_bebe": null, "geo_point_2d": {"lon": 4.80052847112952, "lat": 45.7196629672377}, "commune": "Oullins", "code_commune": "69149", "departement": "Rh\u00f4ne", "code_departement": "69", "region": "Auvergne-Rh\u00f4ne-Alpes", "code_region": "84"},{"type_de_point": "Distributeur automatique de billets", "adresse": null, "arrondissement": null, "horaire": null, "acces_pmr": null, "relais_bebe": null, "geo_point_2d": {"lon": 6.4863918881687, "lat": 44.8189747490727}, "commune": "Puy-Saint-Vincent", "code_commune": "05110", "departement": "Hautes-Alpes", "code_departement": "05", "region": "Provence-Alpes-C\u00f4te d'Azur", "code_region": "93"},{"type_de_point": "Distributeur automatique de billets", "adresse": null, "arrondissement": null, "horaire": null, "acces_pmr": null, "relais_bebe": null, "geo_point_2d": {"lon": 5.3971487348019, "lat": 43.3024584655608}, "commune": "Marseille 4e Arrondissement", "code_commune": "13204", "departement": "Bouches-du-Rh\u00f4ne", "code_departement": "13", "region": "Provence-Alpes-C\u00f4te d'Azur", "code_region": "93"},{"type_de_point": "Distributeur automatique de billets", "adresse": null, "arrondissement": null, "horaire": null, "acces_pmr": null, "relais_bebe": null, "geo_point_2d": {"lon": 3.232842261305, "lat": 50.1720122510879}, "commune": "Cambrai", "code_commune": "59122", "departement": "Nord", "code_departement": "59", "region": "Hauts-de-France", "code_region": "32"},{"type_de_point": "Distributeur automatique de billets", "adresse": null, "arrondissement": null, "horaire": null, "acces_pmr": null, "relais_bebe": null, "geo_point_2d": {"lon": 6.92631616004962, "lat": 45.9789381988092}, "commune": "Chamonix-Mont-Blanc", "code_commune": "74056", "departement": "Haute-Savoie", "code_departement": "74", "region": "Auvergne-Rh\u00f4ne-Alpes", "code_region": "84"},{"type_de_point": "Distributeur automatique de billets", "adresse": null, "arrondissement": null, "horaire": null, "acces_pmr": null, "relais_bebe": null, "geo_point_2d": {"lon": 4.36275734253579, "lat": 46.6738963754368}, "commune": "Montceau-les-Mines", "code_commune": "71306", "departement": "Sa\u00f4ne-et-Loire", "code_departement": "71", "region": "Bourgogne-Franche-Comt\u00e9", "code_region": "27"},{"type_de_point": "Distributeur automatique de billets", "adresse": null, "arrondissement": null, "horaire": null, "acces_pmr": null, "relais_bebe": null, "geo_point_2d": {"lon": 2.12515305362425, "lat": 48.7995375486895}, "commune": "Versailles", "code_commune": "78646", "departement": "Yvelines", "code_departement": "78", "region": "\u00cele-de-France", "code_region": "11"},{"type_de_point": "Distributeur automatique de billets", "adresse": null, "arrondissement": null, "horaire": null, "acces_pmr": null, "relais_bebe": null, "geo_point_2d": {"lon": 6.53104178345981, "lat": 43.1722523891018}, "commune": "Cavalaire-sur-Mer", "code_commune": "83036", "departement": "Var", "code_departement": "83", "region": "Provence-Alpes-C\u00f4te d'Azur", "code_region": "93"},{"type_de_point": "Distributeur automatique de billets", "adresse": null, "arrondissement": null, "horaire": null, "acces_pmr": null, "relais_bebe": null, "geo_point_2d": {"lon": 4.84482255463092, "lat": 45.7634141548706}, "commune": "Lyon 3e Arrondissement", "code_commune": "69383", "departement": "Rh\u00f4ne", "code_departement": "69", "region": "Auvergne-Rh\u00f4ne-Alpes", "code_region": "84"},{"type_de_point": "Distributeur automatique de billets", "adresse": null, "arrondissement": null, "horaire": null, "acces_pmr": null, "relais_bebe": null, "geo_point_2d": {"lon": -1.38478122168254, "lat": 43.8516832577386}, "commune": "Moliets-et-Maa", "code_commune": "40187", "departement": "Landes", "code_departement": "40", "region": "Nouvelle-Aquitaine", "code_region": "75"},{"type_de_point": "Distributeur automatique de billets", "adresse": null, "arrondissement": null, "horaire": null, "acces_pmr": null, "relais_bebe": null, "geo_point_2d": {"lon": 2.32535833132297, "lat": 48.8555896821436}, "commune": "Paris 7e Arrondissement", "code_commune": "75107", "departement": "Paris", "code_departement": "75", "region": "\u00cele-de-France", "code_region": "11"},{"type_de_point": "Distributeur automatique de billets", "adresse": null, "arrondissement": null, "horaire": null, "acces_pmr": null, "relais_bebe": null, "geo_point_2d": {"lon": 2.09475633322259, "lat": 48.8724986630536}, "commune": "Marly-le-Roi", "code_commune": "78372", "departement": "Yvelines", "code_departement": "78", "region": "\u00cele-de-France", "code_region": "11"},{"type_de_point": "Distributeur automatique de billets", "adresse": null, "arrondissement": null, "horaire": null, "acces_pmr": null, "relais_bebe": null, "geo_point_2d": {"lon": 2.09412894777006, "lat": 48.8741784802686}, "commune": "Marly-le-Roi", "code_commune": "78372", "departement": "Yvelines", "code_departement": "78", "region": "\u00cele-de-France", "code_region": "11"},{"type_de_point": "Distributeur automatique de billets", "adresse": null, "arrondissement": null, "horaire": null, "acces_pmr": null, "relais_bebe": null, "geo_point_2d": {"lon": 2.38424296131657, "lat": 48.8677094950374}, "commune": "Paris 20e Arrondissement", "code_commune": "75120", "departement": "Paris", "code_departement": "75", "region": "\u00cele-de-France", "code_region": "11"},{"type_de_point": "Distributeur automatique de billets", "adresse": null, "arrondissement": null, "horaire": null, "acces_pmr": null, "relais_bebe": null, "geo_point_2d": {"lon": 4.08413332567855, "lat": 43.5620901794743}, "commune": "La Grande-Motte", "code_commune": "34344", "departement": "H\u00e9rault", "code_departement": "34", "region": "Occitanie", "code_region": "76"},{"type_de_point": "Distributeur automatique de billets", "adresse": null, "arrondissement": null, "horaire": null, "acces_pmr": null, "relais_bebe": null, "geo_point_2d": {"lon": 6.36794419693862, "lat": 43.1379391406233}, "commune": "Le Lavandou", "code_commune": "83070", "departement": "Var", "code_departement": "83", "region": "Provence-Alpes-C\u00f4te d'Azur", "code_region": "93"},{"type_de_point": "Distributeur automatique de billets", "adresse": null, "arrondissement": null, "horaire": null, "acces_pmr": null, "relais_bebe": null, "geo_point_2d": {"lon": 1.37452018064238, "lat": 47.2688852692945}, "commune": "Saint-Aignan", "code_commune": "41198", "departement": "Loir-et-Cher", "code_departement": "41", "region": "Centre-Val de Loire", "code_region": "24"},{"type_de_point": "Distributeur automatique de billets", "adresse": null, "arrondissement": null, "horaire": null, "acces_pmr": null, "relais_bebe": null, "geo_point_2d": {"lon": 7.4873067973501, "lat": 48.4619682168596}, "commune": "Obernai", "code_commune": "67348", "departement": "Bas-Rhin", "code_departement": "67", "region": "Grand Est", "code_region": "44"},{"type_de_point": "Distributeur automatique de billets", "adresse": null, "arrondissement": null, "horaire": null, "acces_pmr": null, "relais_bebe": null, "geo_point_2d": {"lon": 6.5325142323903, "lat": 45.4849534174872}, "commune": "Mo\u00fbtiers", "code_commune": "73181", "departement": "Savoie", "code_departement": "73", "region": "Auvergne-Rh\u00f4ne-Alpes", "code_region": "84"},{"type_de_point": "Distributeur automatique de billets", "adresse": null, "arrondissement": null, "horaire": null, "acces_pmr": null, "relais_bebe": null, "geo_point_2d": {"lon": -4.25325607465214, "lat": 48.4504633842017}, "commune": "Landerneau", "code_commune": "29103", "departement": "Finist\u00e8re", "code_departement": "29", "region": "Bretagne", "code_region": "53"},{"type_de_point": "Distributeur automatique de billets", "adresse": null, "arrondissement": null, "horaire": null, "acces_pmr": null, "relais_bebe": null, "geo_point_2d": {"lon": 2.87125609467404, "lat": 43.2667700820477}, "commune": "Ginestas", "code_commune": "11164", "departement": "Aude", "code_departement": "11", "region": "Occitanie", "code_region": "76"},{"type_de_point": "Distributeur automatique de billets", "adresse": null, "arrondissement": null, "horaire": null, "acces_pmr": null, "relais_bebe": null, "geo_point_2d": {"lon": 5.22539448632116, "lat": 46.2049366880486}, "commune": "Bourg-en-Bresse", "code_commune": "01053", "departement": "Ain", "code_departement": "01", "region": "Auvergne-Rh\u00f4ne-Alpes", "code_region": "84"},{"type_de_point": "Distributeur automatique de billets", "adresse": null, "arrondissement": null, "horaire": null, "acces_pmr": null, "relais_bebe": null, "geo_point_2d": {"lon": -0.324484216554168, "lat": 43.2949992422887}, "commune": "Idron", "code_commune": "64269", "departement": "Pyr\u00e9n\u00e9es-Atlantiques", "code_departement": "64", "region": "Nouvelle-Aquitaine", "code_region": "75"},{"type_de_point": "Distributeur automatique de billets", "adresse": null, "arrondissement": null, "horaire": null, "acces_pmr": null, "relais_bebe": null, "geo_point_2d": {"lon": 6.66031746866653, "lat": 49.1324613783234}, "commune": "Longeville-l\u00e8s-Saint-Avold", "code_commune": "57413", "departement": "Moselle", "code_departement": "57", "region": "Grand Est", "code_region": "44"},{"type_de_point": "Distributeur automatique de billets", "adresse": null, "arrondissement": null, "horaire": null, "acces_pmr": null, "relais_bebe": null, "geo_point_2d": {"lon": -0.251366360600656, "lat": 46.6449306973639}, "commune": "Parthenay", "code_commune": "79202", "departement": "Deux-S\u00e8vres", "code_departement": "79", "region": "Nouvelle-Aquitaine", "code_region": "75"},{"type_de_point": "Distributeur automatique de billets", "adresse": null, "arrondissement": null, "horaire": null, "acces_pmr": null, "relais_bebe": null, "geo_point_2d": {"lon": 2.48526693896275, "lat": 48.5655259600161}, "commune": "Le Coudray-Montceaux", "code_commune": "91179", "departement": "Essonne", "code_departement": "91", "region": "\u00cele-de-France", "code_region": "11"},{"type_de_point": "Distributeur automatique de billets", "adresse": null, "arrondissement": null, "horaire": null, "acces_pmr": null, "relais_bebe": null, "geo_point_2d": {"lon": 5.88412305994768, "lat": 47.103354332463}, "commune": "Quingey", "code_commune": "25475", "departement": "Doubs", "code_departement": "25", "region": "Bourgogne-Franche-Comt\u00e9", "code_region": "27"},{"type_de_point": "Distributeur automatique de billets", "adresse": null, "arrondissement": null, "horaire": null, "acces_pmr": null, "relais_bebe": null, "geo_point_2d": {"lon": 2.18800634713244, "lat": 48.6977060584915}, "commune": "Orsay", "code_commune": "91471", "departement": "Essonne", "code_departement": "91", "region": "\u00cele-de-France", "code_region": "11"},{"type_de_point": "Distributeur automatique de billets", "adresse": null, "arrondissement": null, "horaire": null, "acces_pmr": null, "relais_bebe": null, "geo_point_2d": {"lon": 1.14198045416634, "lat": 42.9927147891532}, "commune": "Saint-Lizier", "code_commune": "09268", "departement": "Ari\u00e8ge", "code_departement": "09", "region": "Occitanie", "code_region": "76"},{"type_de_point": "Distributeur automatique de billets", "adresse": null, "arrondissement": null, "horaire": null, "acces_pmr": null, "relais_bebe": null, "geo_point_2d": {"lon": 0.676330025970117, "lat": 47.3873679968799}, "commune": "Tours", "code_commune": "37261", "departement": "Indre-et-Loire", "code_departement": "37", "region": "Centre-Val de Loire", "code_region": "24"},{"type_de_point": "Distributeur automatique de billets", "adresse": null, "arrondissement": null, "horaire": null, "acces_pmr": null, "relais_bebe": null, "geo_point_2d": {"lon": -2.7591952450183, "lat": 47.6563463710221}, "commune": "Vannes", "code_commune": "56260", "departement": "Morbihan", "code_departement": "56", "region": "Bretagne", "code_region": "53"},{"type_de_point": "Distributeur automatique de billets", "adresse": null, "arrondissement": null, "horaire": null, "acces_pmr": null, "relais_bebe": null, "geo_point_2d": {"lon": -0.775705030799145, "lat": 43.4889478483635}, "commune": "Orthez", "code_commune": "64430", "departement": "Pyr\u00e9n\u00e9es-Atlantiques", "code_departement": "64", "region": "Nouvelle-Aquitaine", "code_region": "75"},{"type_de_point": "Distributeur automatique de billets", "adresse": null, "arrondissement": null, "horaire": null, "acces_pmr": null, "relais_bebe": null, "geo_point_2d": {"lon": 5.44691024992434, "lat": 43.3431243584545}, "commune": "Marseille 13e Arrondissement", "code_commune": "13213", "departement": "Bouches-du-Rh\u00f4ne", "code_departement": "13", "region": "Provence-Alpes-C\u00f4te d'Azur", "code_region": "93"},{"type_de_point": "Distributeur automatique de billets", "adresse": null, "arrondissement": null, "horaire": null, "acces_pmr": null, "relais_bebe": null, "geo_point_2d": {"lon": -61.7462211661802, "lat": 16.0224400456936}, "commune": "Baillif", "code_commune": "97104", "departement": "Guadeloupe", "code_departement": "971", "region": "Guadeloupe", "code_region": "01"},{"type_de_point": "Distributeur automatique de billets", "adresse": null, "arrondissement": null, "horaire": null, "acces_pmr": null, "relais_bebe": null, "geo_point_2d": {"lon": 4.06839445845159, "lat": 48.3080666677672}, "commune": "Troyes", "code_commune": "10387", "departement": "Aube", "code_departement": "10", "region": "Grand Est", "code_region": "44"},{"type_de_point": "Distributeur automatique de billets", "adresse": null, "arrondissement": null, "horaire": null, "acces_pmr": null, "relais_bebe": null, "geo_point_2d": {"lon": -2.04816988201642, "lat": 48.4536340905342}, "commune": "Dinan", "code_commune": "22050", "departement": "C\u00f4tes-d'Armor", "code_departement": "22", "region": "Bretagne", "code_region": "53"},{"type_de_point": "Distributeur automatique de billets", "adresse": null, "arrondissement": null, "horaire": null, "acces_pmr": null, "relais_bebe": null, "geo_point_2d": {"lon": 2.43490787796307, "lat": 48.5663672516377}, "commune": "Mennecy", "code_commune": "91386", "departement": "Essonne", "code_departement": "91", "region": "\u00cele-de-France", "code_region": "11"},{"type_de_point": "Distributeur automatique de billets", "adresse": null, "arrondissement": null, "horaire": null, "acces_pmr": null, "relais_bebe": null, "geo_point_2d": {"lon": 1.10896095244266, "lat": 44.0398467580621}, "commune": "Castelsarrasin", "code_commune": "82033", "departement": "Tarn-et-Garonne", "code_departement": "82", "region": "Occitanie", "code_region": "76"},{"type_de_point": "Distributeur automatique de billets", "adresse": null, "arrondissement": null, "horaire": null, "acces_pmr": null, "relais_bebe": null, "geo_point_2d": {"lon": -0.618095746837923, "lat": 43.1869324543199}, "commune": "Oloron-Sainte-Marie", "code_commune": "64422", "departement": "Pyr\u00e9n\u00e9es-Atlantiques", "code_departement": "64", "region": "Nouvelle-Aquitaine", "code_region": "75"},{"type_de_point": "Distributeur automatique de billets", "adresse": null, "arrondissement": null, "horaire": null, "acces_pmr": null, "relais_bebe": null, "geo_point_2d": {"lon": 2.2752608695213, "lat": 48.6694029698645}, "commune": "La Ville-du-Bois", "code_commune": "91665", "departement": "Essonne", "code_departement": "91", "region": "\u00cele-de-France", "code_region": "11"},{"type_de_point": "Distributeur automatique de billets", "adresse": null, "arrondissement": null, "horaire": null, "acces_pmr": null, "relais_bebe": null, "geo_point_2d": {"lon": 6.30466501893016, "lat": 48.6315529773419}, "commune": "Saint-Nicolas-de-Port", "code_commune": "54483", "departement": "Meurthe-et-Moselle", "code_departement": "54", "region": "Grand Est", "code_region": "44"},{"type_de_point": "Distributeur automatique de billets", "adresse": null, "arrondissement": null, "horaire": null, "acces_pmr": null, "relais_bebe": null, "geo_point_2d": {"lon": -0.0743002486217677, "lat": 49.3049202934039}, "commune": "Houlgate", "code_commune": "14338", "departement": "Calvados", "code_departement": "14", "region": "Normandie", "code_region": "28"},{"type_de_point": "Distributeur automatique de billets", "adresse": null, "arrondissement": null, "horaire": null, "acces_pmr": null, "relais_bebe": null, "geo_point_2d": {"lon": 2.35322975193651, "lat": 48.6867368294464}, "commune": "Savigny-sur-Orge", "code_commune": "91589", "departement": "Essonne", "code_departement": "91", "region": "\u00cele-de-France", "code_region": "11"},{"type_de_point": "Distributeur automatique de billets", "adresse": null, "arrondissement": null, "horaire": null, "acces_pmr": null, "relais_bebe": null, "geo_point_2d": {"lon": 2.24501284408197, "lat": 48.8449131491573}, "commune": "Boulogne-Billancourt", "code_commune": "92012", "departement": "Hauts-de-Seine", "code_departement": "92", "region": "\u00cele-de-France", "code_region": "11"},{"type_de_point": "Distributeur automatique de billets", "adresse": null, "arrondissement": null, "horaire": null, "acces_pmr": null, "relais_bebe": null, "geo_point_2d": {"lon": 9.4363597947428, "lat": 42.6195577404674}, "commune": "Biguglia", "code_commune": "2B037", "departement": "Haute-Corse", "code_departement": "2B", "region": "Corse", "code_region": "94"},{"type_de_point": "Distributeur automatique de billets", "adresse": null, "arrondissement": null, "horaire": null, "acces_pmr": null, "relais_bebe": null, "geo_point_2d": {"lon": -0.859585501884567, "lat": 47.355531433151}, "commune": "Mauges-sur-Loire", "code_commune": "49244", "departement": "Maine-et-Loire", "code_departement": "49", "region": "Pays de la Loire", "code_region": "52"},{"type_de_point": "Distributeur automatique de billets", "adresse": null, "arrondissement": null, "horaire": null, "acces_pmr": null, "relais_bebe": null, "geo_point_2d": {"lon": 3.30011818220368, "lat": 50.3343351821178}, "commune": "Abscon", "code_commune": "59002", "departement": "Nord", "code_departement": "59", "region": "Hauts-de-France", "code_region": "32"},{"type_de_point": "Distributeur automatique de billets", "adresse": null, "arrondissement": null, "horaire": null, "acces_pmr": null, "relais_bebe": null, "geo_point_2d": {"lon": 2.29632928606213, "lat": 48.9624691735278}, "commune": "\u00c9pinay-sur-Seine", "code_commune": "93031", "departement": "Seine-Saint-Denis", "code_departement": "93", "region": "\u00cele-de-France", "code_region": "11"},{"type_de_point": "Distributeur automatique de billets", "adresse": null, "arrondissement": null, "horaire": null, "acces_pmr": null, "relais_bebe": null, "geo_point_2d": {"lon": 5.23726368031001, "lat": 43.4195634597215}, "commune": "Saint-Victoret", "code_commune": "13102", "departement": "Bouches-du-Rh\u00f4ne", "code_departement": "13", "region": "Provence-Alpes-C\u00f4te d'Azur", "code_region": "93"},{"type_de_point": "Distributeur automatique de billets", "adresse": null, "arrondissement": null, "horaire": null, "acces_pmr": null, "relais_bebe": null, "geo_point_2d": {"lon": 2.70511369800604, "lat": 48.87732244833}, "commune": "Lagny-sur-Marne", "code_commune": "77243", "departement": "Seine-et-Marne", "code_departement": "77", "region": "\u00cele-de-France", "code_region": "11"},{"type_de_point": "Distributeur automatique de billets", "adresse": null, "arrondissement": null, "horaire": null, "acces_pmr": null, "relais_bebe": null, "geo_point_2d": {"lon": 55.2958210460188, "lat": -21.0203123369982}, "commune": "Saint-Paul", "code_commune": "97415", "departement": "La R\u00e9union", "code_departement": "974", "region": "La R\u00e9union", "code_region": "04"},{"type_de_point": "Distributeur automatique de billets", "adresse": null, "arrondissement": null, "horaire": null, "acces_pmr": null, "relais_bebe": null, "geo_point_2d": {"lon": 4.89473879968597, "lat": 44.9363281828434}, "commune": "Valence", "code_commune": "26362", "departement": "Dr\u00f4me", "code_departement": "26", "region": "Auvergne-Rh\u00f4ne-Alpes", "code_region": "84"},{"type_de_point": "Distributeur automatique de billets", "adresse": null, "arrondissement": null, "horaire": null, "acces_pmr": null, "relais_bebe": null, "geo_point_2d": {"lon": 3.04823587305023, "lat": 42.5429951737666}, "commune": "Argel\u00e8s-sur-Mer", "code_commune": "66008", "departement": "Pyr\u00e9n\u00e9es-Orientales", "code_departement": "66", "region": "Occitanie", "code_region": "76"},{"type_de_point": "Distributeur automatique de billets", "adresse": null, "arrondissement": null, "horaire": null, "acces_pmr": null, "relais_bebe": null, "geo_point_2d": {"lon": 5.49371261795042, "lat": 46.1151122741468}, "commune": "Ceignes", "code_commune": "01067", "departement": "Ain", "code_departement": "01", "region": "Auvergne-Rh\u00f4ne-Alpes", "code_region": "84"},{"type_de_point": "Distributeur automatique de billets", "adresse": null, "arrondissement": null, "horaire": null, "acces_pmr": null, "relais_bebe": null, "geo_point_2d": {"lon": -2.02472435773561, "lat": 48.6500350738395}, "commune": "Saint-Malo", "code_commune": "35288", "departement": "Ille-et-Vilaine", "code_departement": "35", "region": "Bretagne", "code_region": "53"},{"type_de_point": "Distributeur automatique de billets", "adresse": null, "arrondissement": null, "horaire": null, "acces_pmr": null, "relais_bebe": null, "geo_point_2d": {"lon": -0.354228405793776, "lat": 43.2892038267964}, "commune": "Bizanos", "code_commune": "64132", "departement": "Pyr\u00e9n\u00e9es-Atlantiques", "code_departement": "64", "region": "Nouvelle-Aquitaine", "code_region": "75"},{"type_de_point": "Distributeur automatique de billets", "adresse": null, "arrondissement": null, "horaire": null, "acces_pmr": null, "relais_bebe": null, "geo_point_2d": {"lon": 2.57698298077284, "lat": 44.3559396423046}, "commune": "Rodez", "code_commune": "12202", "departement": "Aveyron", "code_departement": "12", "region": "Occitanie", "code_region": "76"},{"type_de_point": "Distributeur automatique de billets", "adresse": null, "arrondissement": null, "horaire": null, "acces_pmr": null, "relais_bebe": null, "geo_point_2d": {"lon": 1.69384236072054, "lat": 46.810206991977}, "commune": "Ch\u00e2teauroux", "code_commune": "36044", "departement": "Indre", "code_departement": "36", "region": "Centre-Val de Loire", "code_region": "24"},{"type_de_point": "Distributeur automatique de billets", "adresse": null, "arrondissement": null, "horaire": null, "acces_pmr": null, "relais_bebe": null, "geo_point_2d": {"lon": -1.91132014146407, "lat": 48.6756183187057}, "commune": "Saint-Coulomb", "code_commune": "35263", "departement": "Ille-et-Vilaine", "code_departement": "35", "region": "Bretagne", "code_region": "53"},{"type_de_point": "Distributeur automatique de billets", "adresse": null, "arrondissement": null, "horaire": null, "acces_pmr": null, "relais_bebe": null, "geo_point_2d": {"lon": 3.12663156197502, "lat": 50.7851125936849}, "commune": "Halluin", "code_commune": "59279", "departement": "Nord", "code_departement": "59", "region": "Hauts-de-France", "code_region": "32"},{"type_de_point": "Distributeur automatique de billets", "adresse": null, "arrondissement": null, "horaire": null, "acces_pmr": null, "relais_bebe": null, "geo_point_2d": {"lon": 2.29601119283669, "lat": 48.8375365714504}, "commune": "Paris 15e Arrondissement", "code_commune": "75115", "departement": "Paris", "code_departement": "75", "region": "\u00cele-de-France", "code_region": "11"},{"type_de_point": "Distributeur automatique de billets", "adresse": null, "arrondissement": null, "horaire": null, "acces_pmr": null, "relais_bebe": null, "geo_point_2d": {"lon": -0.243964553365231, "lat": 48.7637661843349}, "commune": "Putanges-le-Lac", "code_commune": "61339", "departement": "Orne", "code_departement": "61", "region": "Normandie", "code_region": "28"},{"type_de_point": "Distributeur automatique de billets", "adresse": null, "arrondissement": null, "horaire": null, "acces_pmr": null, "relais_bebe": null, "geo_point_2d": {"lon": 2.39379648691568, "lat": 47.094051844864}, "commune": "Bourges", "code_commune": "18033", "departement": "Cher", "code_departement": "18", "region": "Centre-Val de Loire", "code_region": "24"},{"type_de_point": "Distributeur automatique de billets", "adresse": null, "arrondissement": null, "horaire": null, "acces_pmr": null, "relais_bebe": null, "geo_point_2d": {"lon": 4.89662724247094, "lat": 45.8210826545327}, "commune": "Rillieux-la-Pape", "code_commune": "69286", "departement": "Rh\u00f4ne", "code_departement": "69", "region": "Auvergne-Rh\u00f4ne-Alpes", "code_region": "84"},{"type_de_point": "Distributeur automatique de billets", "adresse": null, "arrondissement": null, "horaire": null, "acces_pmr": null, "relais_bebe": null, "geo_point_2d": {"lon": -1.42745600530984, "lat": 46.4906532199142}, "commune": "Moutiers-les-Mauxfaits", "code_commune": "85156", "departement": "Vend\u00e9e", "code_departement": "85", "region": "Pays de la Loire", "code_region": "52"},{"type_de_point": "Distributeur automatique de billets", "adresse": null, "arrondissement": null, "horaire": null, "acces_pmr": null, "relais_bebe": null, "geo_point_2d": {"lon": -1.05095005103004, "lat": 46.687153193496}, "commune": "Chantonnay", "code_commune": "85051", "departement": "Vend\u00e9e", "code_departement": "85", "region": "Pays de la Loire", "code_region": "52"},{"type_de_point": "Distributeur automatique de billets", "adresse": null, "arrondissement": null, "horaire": null, "acces_pmr": null, "relais_bebe": null, "geo_point_2d": {"lon": 0.99835419635528, "lat": 47.1292378171009}, "commune": "Loches", "code_commune": "37132", "departement": "Indre-et-Loire", "code_departement": "37", "region": "Centre-Val de Loire", "code_region": "24"},{"type_de_point": "Distributeur automatique de billets", "adresse": null, "arrondissement": null, "horaire": null, "acces_pmr": null, "relais_bebe": null, "geo_point_2d": {"lon": -1.68568693556495, "lat": 43.3899163329207}, "commune": "Urrugne", "code_commune": "64545", "departement": "Pyr\u00e9n\u00e9es-Atlantiques", "code_departement": "64", "region": "Nouvelle-Aquitaine", "code_region": "75"},{"type_de_point": "Distributeur automatique de billets", "adresse": null, "arrondissement": null, "horaire": null, "acces_pmr": null, "relais_bebe": null, "geo_point_2d": {"lon": -1.02292113445588, "lat": 44.6356685616382}, "commune": "Le Teich", "code_commune": "33527", "departement": "Gironde", "code_departement": "33", "region": "Nouvelle-Aquitaine", "code_region": "75"},{"type_de_point": "Distributeur automatique de billets", "adresse": null, "arrondissement": null, "horaire": null, "acces_pmr": null, "relais_bebe": null, "geo_point_2d": {"lon": 2.07286405941883, "lat": 48.8953644949109}, "commune": "Saint-Germain-en-Laye", "code_commune": "78551", "departement": "Yvelines", "code_departement": "78", "region": "\u00cele-de-France", "code_region": "11"},{"type_de_point": "Distributeur automatique de billets", "adresse": null, "arrondissement": null, "horaire": null, "acces_pmr": null, "relais_bebe": null, "geo_point_2d": {"lon": 4.08597826638609, "lat": 48.3035888874538}, "commune": "Troyes", "code_commune": "10387", "departement": "Aube", "code_departement": "10", "region": "Grand Est", "code_region": "44"},{"type_de_point": "Distributeur automatique de billets", "adresse": null, "arrondissement": null, "horaire": null, "acces_pmr": null, "relais_bebe": null, "geo_point_2d": {"lon": 2.76573556125138, "lat": 48.1472471987095}, "commune": "Dordives", "code_commune": "45127", "departement": "Loiret", "code_departement": "45", "region": "Centre-Val de Loire", "code_region": "24"},{"type_de_point": "Distributeur automatique de billets", "adresse": null, "arrondissement": null, "horaire": null, "acces_pmr": null, "relais_bebe": null, "geo_point_2d": {"lon": -0.0463425782245963, "lat": 44.854946357094}, "commune": "Castillon-la-Bataille", "code_commune": "33108", "departement": "Gironde", "code_departement": "33", "region": "Nouvelle-Aquitaine", "code_region": "75"},{"type_de_point": "Distributeur automatique de billets", "adresse": null, "arrondissement": null, "horaire": null, "acces_pmr": null, "relais_bebe": null, "geo_point_2d": {"lon": 3.96926093524715, "lat": 46.7880367742641}, "commune": "Luzy", "code_commune": "58149", "departement": "Ni\u00e8vre", "code_departement": "58", "region": "Bourgogne-Franche-Comt\u00e9", "code_region": "27"},{"type_de_point": "Distributeur automatique de billets", "adresse": null, "arrondissement": null, "horaire": null, "acces_pmr": null, "relais_bebe": null, "geo_point_2d": {"lon": -1.63276820897411, "lat": 48.1301880979137}, "commune": "Rennes", "code_commune": "35238", "departement": "Ille-et-Vilaine", "code_departement": "35", "region": "Bretagne", "code_region": "53"},{"type_de_point": "Distributeur automatique de billets", "adresse": null, "arrondissement": null, "horaire": null, "acces_pmr": null, "relais_bebe": null, "geo_point_2d": {"lon": -1.63046804710524, "lat": 47.2254452179075}, "commune": "Saint-Herblain", "code_commune": "44162", "departement": "Loire-Atlantique", "code_departement": "44", "region": "Pays de la Loire", "code_region": "52"},{"type_de_point": "Distributeur automatique de billets", "adresse": null, "arrondissement": null, "horaire": null, "acces_pmr": null, "relais_bebe": null, "geo_point_2d": {"lon": 2.34057182085903, "lat": 48.8717355745887}, "commune": "Paris 2e Arrondissement", "code_commune": "75102", "departement": "Paris", "code_departement": "75", "region": "\u00cele-de-France", "code_region": "11"},{"type_de_point": "Distributeur automatique de billets", "adresse": null, "arrondissement": null, "horaire": null, "acces_pmr": null, "relais_bebe": null, "geo_point_2d": {"lon": 2.24603493335493, "lat": 48.8988156597236}, "commune": "Courbevoie", "code_commune": "92026", "departement": "Hauts-de-Seine", "code_departement": "92", "region": "\u00cele-de-France", "code_region": "11"},{"type_de_point": "Distributeur automatique de billets", "adresse": null, "arrondissement": null, "horaire": null, "acces_pmr": null, "relais_bebe": null, "geo_point_2d": {"lon": 5.90013417138974, "lat": 45.5916395383651}, "commune": "Chamb\u00e9ry", "code_commune": "73065", "departement": "Savoie", "code_departement": "73", "region": "Auvergne-Rh\u00f4ne-Alpes", "code_region": "84"},{"type_de_point": "Distributeur automatique de billets", "adresse": null, "arrondissement": null, "horaire": null, "acces_pmr": null, "relais_bebe": null, "geo_point_2d": {"lon": 3.28384362754488, "lat": 44.7224586427722}, "commune": "Peyre en Aubrac", "code_commune": "48009", "departement": "Loz\u00e8re", "code_departement": "48", "region": "Occitanie", "code_region": "76"},{"type_de_point": "Distributeur automatique de billets", "adresse": null, "arrondissement": null, "horaire": null, "acces_pmr": null, "relais_bebe": null, "geo_point_2d": {"lon": 1.96859863217739, "lat": 48.9860255903876}, "commune": "Verneuil-sur-Seine", "code_commune": "78642", "departement": "Yvelines", "code_departement": "78", "region": "\u00cele-de-France", "code_region": "11"},{"type_de_point": "Distributeur automatique de billets", "adresse": null, "arrondissement": null, "horaire": null, "acces_pmr": null, "relais_bebe": null, "geo_point_2d": {"lon": 5.75389368179788, "lat": 43.135648366486}, "commune": "Bandol", "code_commune": "83009", "departement": "Var", "code_departement": "83", "region": "Provence-Alpes-C\u00f4te d'Azur", "code_region": "93"},{"type_de_point": "Distributeur automatique de billets", "adresse": null, "arrondissement": null, "horaire": null, "acces_pmr": null, "relais_bebe": null, "geo_point_2d": {"lon": 6.32352824056508, "lat": 45.882171892699}, "commune": "Th\u00f4nes", "code_commune": "74280", "departement": "Haute-Savoie", "code_departement": "74", "region": "Auvergne-Rh\u00f4ne-Alpes", "code_region": "84"},{"type_de_point": "Distributeur automatique de billets", "adresse": null, "arrondissement": null, "horaire": null, "acces_pmr": null, "relais_bebe": null, "geo_point_2d": {"lon": 7.19445684678871, "lat": 43.6624217280993}, "commune": "Saint-Laurent-du-Var", "code_commune": "06123", "departement": "Alpes-Maritimes", "code_departement": "06", "region": "Provence-Alpes-C\u00f4te d'Azur", "code_region": "93"},{"type_de_point": "Distributeur automatique de billets", "adresse": null, "arrondissement": null, "horaire": null, "acces_pmr": null, "relais_bebe": null, "geo_point_2d": {"lon": 3.12150862657441, "lat": 43.3308540903988}, "commune": "Montady", "code_commune": "34161", "departement": "H\u00e9rault", "code_departement": "34", "region": "Occitanie", "code_region": "76"},{"type_de_point": "Distributeur automatique de billets", "adresse": null, "arrondissement": null, "horaire": null, "acces_pmr": null, "relais_bebe": null, "geo_point_2d": {"lon": 5.34874768638352, "lat": 43.3802381684214}, "commune": "Les Pennes-Mirabeau", "code_commune": "13071", "departement": "Bouches-du-Rh\u00f4ne", "code_departement": "13", "region": "Provence-Alpes-C\u00f4te d'Azur", "code_region": "93"},{"type_de_point": "Distributeur automatique de billets", "adresse": null, "arrondissement": null, "horaire": null, "acces_pmr": null, "relais_bebe": null, "geo_point_2d": {"lon": 5.05986505823225, "lat": 45.8522762424691}, "commune": "Montluel", "code_commune": "01262", "departement": "Ain", "code_departement": "01", "region": "Auvergne-Rh\u00f4ne-Alpes", "code_region": "84"},{"type_de_point": "Distributeur automatique de billets", "adresse": null, "arrondissement": null, "horaire": null, "acces_pmr": null, "relais_bebe": null, "geo_point_2d": {"lon": -1.35314716473439, "lat": 46.0160741370004}, "commune": "La Br\u00e9e-les-Bains", "code_commune": "17486", "departement": "Charente-Maritime", "code_departement": "17", "region": "Nouvelle-Aquitaine", "code_region": "75"},{"type_de_point": "Distributeur automatique de billets", "adresse": null, "arrondissement": null, "horaire": null, "acces_pmr": null, "relais_bebe": null, "geo_point_2d": {"lon": 7.26588474342438, "lat": 43.7023467445715}, "commune": "Nice", "code_commune": "06088", "departement": "Alpes-Maritimes", "code_departement": "06", "region": "Provence-Alpes-C\u00f4te d'Azur", "code_region": "93"},{"type_de_point": "Distributeur automatique de billets", "adresse": null, "arrondissement": null, "horaire": null, "acces_pmr": null, "relais_bebe": null, "geo_point_2d": {"lon": 3.06056506588527, "lat": 50.6308930351861}, "commune": "Lille", "code_commune": "59350", "departement": "Nord", "code_departement": "59", "region": "Hauts-de-France", "code_region": "32"},{"type_de_point": "Distributeur automatique de billets", "adresse": null, "arrondissement": null, "horaire": null, "acces_pmr": null, "relais_bebe": null, "geo_point_2d": {"lon": 7.28362906480464, "lat": 43.6984929969494}, "commune": "Nice", "code_commune": "06088", "departement": "Alpes-Maritimes", "code_departement": "06", "region": "Provence-Alpes-C\u00f4te d'Azur", "code_region": "93"},{"type_de_point": "Distributeur automatique de billets", "adresse": null, "arrondissement": null, "horaire": null, "acces_pmr": null, "relais_bebe": null, "geo_point_2d": {"lon": 3.06128766975786, "lat": 50.6366047992846}, "commune": "Lille", "code_commune": "59350", "departement": "Nord", "code_departement": "59", "region": "Hauts-de-France", "code_region": "32"},{"type_de_point": "Distributeur automatique de billets", "adresse": null, "arrondissement": null, "horaire": null, "acces_pmr": null, "relais_bebe": null, "geo_point_2d": {"lon": 1.10147582908968, "lat": 49.438010834202}, "commune": "Rouen", "code_commune": "76540", "departement": "Seine-Maritime", "code_departement": "76", "region": "Normandie", "code_region": "28"},{"type_de_point": "Distributeur automatique de billets", "adresse": null, "arrondissement": null, "horaire": null, "acces_pmr": null, "relais_bebe": null, "geo_point_2d": {"lon": 1.89390673862692, "lat": 47.9340985861303}, "commune": "Saran", "code_commune": "45302", "departement": "Loiret", "code_departement": "45", "region": "Centre-Val de Loire", "code_region": "24"},{"type_de_point": "Distributeur automatique de billets", "adresse": null, "arrondissement": null, "horaire": null, "acces_pmr": null, "relais_bebe": null, "geo_point_2d": {"lon": 2.01082733091781, "lat": 49.0490577537095}, "commune": "Cergy", "code_commune": "95127", "departement": "Val-d'Oise", "code_departement": "95", "region": "\u00cele-de-France", "code_region": "11"},{"type_de_point": "Distributeur automatique de billets", "adresse": null, "arrondissement": null, "horaire": null, "acces_pmr": null, "relais_bebe": null, "geo_point_2d": {"lon": -1.71531361052206, "lat": 48.1055380941468}, "commune": "Rennes", "code_commune": "35238", "departement": "Ille-et-Vilaine", "code_departement": "35", "region": "Bretagne", "code_region": "53"},{"type_de_point": "Distributeur automatique de billets", "adresse": null, "arrondissement": null, "horaire": null, "acces_pmr": null, "relais_bebe": null, "geo_point_2d": {"lon": 4.53018753480737, "lat": 45.4737096811131}, "commune": "Saint-Chamond", "code_commune": "42207", "departement": "Loire", "code_departement": "42", "region": "Auvergne-Rh\u00f4ne-Alpes", "code_region": "84"},{"type_de_point": "Distributeur automatique de billets", "adresse": null, "arrondissement": null, "horaire": null, "acces_pmr": null, "relais_bebe": null, "geo_point_2d": {"lon": 55.4002062506566, "lat": -21.2911208158793}, "commune": "Saint-Louis", "code_commune": "97414", "departement": "La R\u00e9union", "code_departement": "974", "region": "La R\u00e9union", "code_region": "04"},{"type_de_point": "Distributeur automatique de billets", "adresse": null, "arrondissement": null, "horaire": null, "acces_pmr": null, "relais_bebe": null, "geo_point_2d": {"lon": -0.327168856321634, "lat": 49.2406398970614}, "commune": "Bi\u00e9ville-Beuville", "code_commune": "14068", "departement": "Calvados", "code_departement": "14", "region": "Normandie", "code_region": "28"},{"type_de_point": "Distributeur automatique de billets", "adresse": null, "arrondissement": null, "horaire": null, "acces_pmr": null, "relais_bebe": null, "geo_point_2d": {"lon": 2.56128267030047, "lat": 44.2936808771885}, "commune": "Luc-la-Primaube", "code_commune": "12133", "departement": "Aveyron", "code_departement": "12", "region": "Occitanie", "code_region": "76"},{"type_de_point": "Distributeur automatique de billets", "adresse": null, "arrondissement": null, "horaire": null, "acces_pmr": null, "relais_bebe": null, "geo_point_2d": {"lon": 2.42354813604911, "lat": 48.6258352620922}, "commune": "\u00c9vry-Courcouronnes", "code_commune": "91228", "departement": "Essonne", "code_departement": "91", "region": "\u00cele-de-France", "code_region": "11"},{"type_de_point": "Distributeur automatique de billets", "adresse": null, "arrondissement": null, "horaire": null, "acces_pmr": null, "relais_bebe": null, "geo_point_2d": {"lon": 3.24681958776102, "lat": 48.5148389989643}, "commune": "Longueville", "code_commune": "77260", "departement": "Seine-et-Marne", "code_departement": "77", "region": "\u00cele-de-France", "code_region": "11"},{"type_de_point": "Distributeur automatique de billets", "adresse": null, "arrondissement": null, "horaire": null, "acces_pmr": null, "relais_bebe": null, "geo_point_2d": {"lon": 2.24446139867217, "lat": 43.6041636453679}, "commune": "Castres", "code_commune": "81065", "departement": "Tarn", "code_departement": "81", "region": "Occitanie", "code_region": "76"},{"type_de_point": "Distributeur automatique de billets", "adresse": null, "arrondissement": null, "horaire": null, "acces_pmr": null, "relais_bebe": null, "geo_point_2d": {"lon": 2.48092804678498, "lat": 48.6119482925523}, "commune": "Corbeil-Essonnes", "code_commune": "91174", "departement": "Essonne", "code_departement": "91", "region": "\u00cele-de-France", "code_region": "11"},{"type_de_point": "Distributeur automatique de billets", "adresse": null, "arrondissement": null, "horaire": null, "acces_pmr": null, "relais_bebe": null, "geo_point_2d": {"lon": 1.17651272177477, "lat": 43.5141795562106}, "commune": "Saint-Lys", "code_commune": "31499", "departement": "Haute-Garonne", "code_departement": "31", "region": "Occitanie", "code_region": "76"},{"type_de_point": "Distributeur automatique de billets", "adresse": null, "arrondissement": null, "horaire": null, "acces_pmr": null, "relais_bebe": null, "geo_point_2d": {"lon": 1.44701853013234, "lat": 43.6010713936491}, "commune": "Toulouse", "code_commune": "31555", "departement": "Haute-Garonne", "code_departement": "31", "region": "Occitanie", "code_region": "76"},{"type_de_point": "Distributeur automatique de billets", "adresse": null, "arrondissement": null, "horaire": null, "acces_pmr": null, "relais_bebe": null, "geo_point_2d": {"lon": 1.05004187282702, "lat": 49.4076999444889}, "commune": "Le Grand-Quevilly", "code_commune": "76322", "departement": "Seine-Maritime", "code_departement": "76", "region": "Normandie", "code_region": "28"},{"type_de_point": "Distributeur automatique de billets", "adresse": null, "arrondissement": null, "horaire": null, "acces_pmr": null, "relais_bebe": null, "geo_point_2d": {"lon": -0.77205094011066, "lat": 43.4889001553344}, "commune": "Orthez", "code_commune": "64430", "departement": "Pyr\u00e9n\u00e9es-Atlantiques", "code_departement": "64", "region": "Nouvelle-Aquitaine", "code_region": "75"},{"type_de_point": "Distributeur automatique de billets", "adresse": null, "arrondissement": null, "horaire": null, "acces_pmr": null, "relais_bebe": null, "geo_point_2d": {"lon": 3.03567609405891, "lat": 42.6945364627444}, "commune": "Canet-en-Roussillon", "code_commune": "66037", "departement": "Pyr\u00e9n\u00e9es-Orientales", "code_departement": "66", "region": "Occitanie", "code_region": "76"},{"type_de_point": "Distributeur automatique de billets", "adresse": null, "arrondissement": null, "horaire": null, "acces_pmr": null, "relais_bebe": null, "geo_point_2d": {"lon": 2.57681433688097, "lat": 49.0047072599998}, "commune": "Le Mesnil-Amelot", "code_commune": "77291", "departement": "Seine-et-Marne", "code_departement": "77", "region": "\u00cele-de-France", "code_region": "11"},{"type_de_point": "Distributeur automatique de billets", "adresse": null, "arrondissement": null, "horaire": null, "acces_pmr": null, "relais_bebe": null, "geo_point_2d": {"lon": 2.30391256150128, "lat": 48.7535650728966}, "commune": "Antony", "code_commune": "92002", "departement": "Hauts-de-Seine", "code_departement": "92", "region": "\u00cele-de-France", "code_region": "11"},{"type_de_point": "Distributeur automatique de billets", "adresse": null, "arrondissement": null, "horaire": null, "acces_pmr": null, "relais_bebe": null, "geo_point_2d": {"lon": 2.39146128869154, "lat": 47.0857021281986}, "commune": "Bourges", "code_commune": "18033", "departement": "Cher", "code_departement": "18", "region": "Centre-Val de Loire", "code_region": "24"},{"type_de_point": "Distributeur automatique de billets", "adresse": null, "arrondissement": null, "horaire": null, "acces_pmr": null, "relais_bebe": null, "geo_point_2d": {"lon": 1.09032312018411, "lat": 49.4147649668548}, "commune": "Sotteville-l\u00e8s-Rouen", "code_commune": "76681", "departement": "Seine-Maritime", "code_departement": "76", "region": "Normandie", "code_region": "28"},{"type_de_point": "Distributeur automatique de billets", "adresse": null, "arrondissement": null, "horaire": null, "acces_pmr": null, "relais_bebe": null, "geo_point_2d": {"lon": -0.77533614324048, "lat": 43.4899829295864}, "commune": "Orthez", "code_commune": "64430", "departement": "Pyr\u00e9n\u00e9es-Atlantiques", "code_departement": "64", "region": "Nouvelle-Aquitaine", "code_region": "75"},{"type_de_point": "Distributeur automatique de billets", "adresse": null, "arrondissement": null, "horaire": null, "acces_pmr": null, "relais_bebe": null, "geo_point_2d": {"lon": 1.70648956296196, "lat": 50.7320575773485}, "commune": "La Capelle-l\u00e8s-Boulogne", "code_commune": "62908", "departement": "Pas-de-Calais", "code_departement": "62", "region": "Hauts-de-France", "code_region": "32"},{"type_de_point": "Distributeur automatique de billets", "adresse": null, "arrondissement": null, "horaire": null, "acces_pmr": null, "relais_bebe": null, "geo_point_2d": {"lon": 1.74113968012901, "lat": 45.7386299568339}, "commune": "Eymoutiers", "code_commune": "87064", "departement": "Haute-Vienne", "code_departement": "87", "region": "Nouvelle-Aquitaine", "code_region": "75"},{"type_de_point": "Distributeur automatique de billets", "adresse": null, "arrondissement": null, "horaire": null, "acces_pmr": null, "relais_bebe": null, "geo_point_2d": {"lon": 6.58085359000131, "lat": 45.3728105938242}, "commune": "Les Allues", "code_commune": "73015", "departement": "Savoie", "code_departement": "73", "region": "Auvergne-Rh\u00f4ne-Alpes", "code_region": "84"},{"type_de_point": "Distributeur automatique de billets", "adresse": null, "arrondissement": null, "horaire": null, "acces_pmr": null, "relais_bebe": null, "geo_point_2d": {"lon": 5.1625120237899, "lat": 48.7726487385849}, "commune": "Bar-le-Duc", "code_commune": "55029", "departement": "Meuse", "code_departement": "55", "region": "Grand Est", "code_region": "44"},{"type_de_point": "Distributeur automatique de billets", "adresse": null, "arrondissement": null, "horaire": null, "acces_pmr": null, "relais_bebe": null, "geo_point_2d": {"lon": -1.9797900644698, "lat": 48.3813871981394}, "commune": "\u00c9vran", "code_commune": "22056", "departement": "C\u00f4tes-d'Armor", "code_departement": "22", "region": "Bretagne", "code_region": "53"},{"type_de_point": "Distributeur automatique de billets", "adresse": null, "arrondissement": null, "horaire": null, "acces_pmr": null, "relais_bebe": null, "geo_point_2d": {"lon": 0.681456984684246, "lat": 47.3915411788319}, "commune": "Tours", "code_commune": "37261", "departement": "Indre-et-Loire", "code_departement": "37", "region": "Centre-Val de Loire", "code_region": "24"},{"type_de_point": "Distributeur automatique de billets", "adresse": null, "arrondissement": null, "horaire": null, "acces_pmr": null, "relais_bebe": null, "geo_point_2d": {"lon": 2.80267452471804, "lat": 50.3008972557877}, "commune": "Saint-Laurent-Blangy", "code_commune": "62753", "departement": "Pas-de-Calais", "code_departement": "62", "region": "Hauts-de-France", "code_region": "32"},{"type_de_point": "Distributeur automatique de billets", "adresse": null, "arrondissement": null, "horaire": null, "acces_pmr": null, "relais_bebe": null, "geo_point_2d": {"lon": 4.87170792815513, "lat": 45.7438557381864}, "commune": "Lyon 8e Arrondissement", "code_commune": "69388", "departement": "Rh\u00f4ne", "code_departement": "69", "region": "Auvergne-Rh\u00f4ne-Alpes", "code_region": "84"},{"type_de_point": "Distributeur automatique de billets", "adresse": null, "arrondissement": null, "horaire": null, "acces_pmr": null, "relais_bebe": null, "geo_point_2d": {"lon": 2.26471794407161, "lat": 48.8483666609028}, "commune": "Paris 16e Arrondissement", "code_commune": "75116", "departement": "Paris", "code_departement": "75", "region": "\u00cele-de-France", "code_region": "11"},{"type_de_point": "Distributeur automatique de billets", "adresse": null, "arrondissement": null, "horaire": null, "acces_pmr": null, "relais_bebe": null, "geo_point_2d": {"lon": 6.99645684781493, "lat": 43.6014480763778}, "commune": "Mougins", "code_commune": "06085", "departement": "Alpes-Maritimes", "code_departement": "06", "region": "Provence-Alpes-C\u00f4te d'Azur", "code_region": "93"},{"type_de_point": "Distributeur automatique de billets", "adresse": null, "arrondissement": null, "horaire": null, "acces_pmr": null, "relais_bebe": null, "geo_point_2d": {"lon": -1.36842016578299, "lat": 46.2046017471978}, "commune": "Saint-Martin-de-R\u00e9", "code_commune": "17369", "departement": "Charente-Maritime", "code_departement": "17", "region": "Nouvelle-Aquitaine", "code_region": "75"},{"type_de_point": "Distributeur automatique de billets", "adresse": null, "arrondissement": null, "horaire": null, "acces_pmr": null, "relais_bebe": null, "geo_point_2d": {"lon": 6.25854912877401, "lat": 45.2548268409348}, "commune": "Fontcouverte-la-Toussuire", "code_commune": "73116", "departement": "Savoie", "code_departement": "73", "region": "Auvergne-Rh\u00f4ne-Alpes", "code_region": "84"},{"type_de_point": "Distributeur automatique de billets", "adresse": null, "arrondissement": null, "horaire": null, "acces_pmr": null, "relais_bebe": null, "geo_point_2d": {"lon": 2.27247556309675, "lat": 48.9132155179186}, "commune": "Bois-Colombes", "code_commune": "92009", "departement": "Hauts-de-Seine", "code_departement": "92", "region": "\u00cele-de-France", "code_region": "11"},{"type_de_point": "Distributeur automatique de billets", "adresse": null, "arrondissement": null, "horaire": null, "acces_pmr": null, "relais_bebe": null, "geo_point_2d": {"lon": 2.33356915985271, "lat": 48.8682957253453}, "commune": "Paris 2e Arrondissement", "code_commune": "75102", "departement": "Paris", "code_departement": "75", "region": "\u00cele-de-France", "code_region": "11"},{"type_de_point": "Distributeur automatique de billets", "adresse": null, "arrondissement": null, "horaire": null, "acces_pmr": null, "relais_bebe": null, "geo_point_2d": {"lon": -1.47712942662994, "lat": 43.4933566456138}, "commune": "Bayonne", "code_commune": "64102", "departement": "Pyr\u00e9n\u00e9es-Atlantiques", "code_departement": "64", "region": "Nouvelle-Aquitaine", "code_region": "75"},{"type_de_point": "Distributeur automatique de billets", "adresse": null, "arrondissement": null, "horaire": null, "acces_pmr": null, "relais_bebe": null, "geo_point_2d": {"lon": 5.76415992062383, "lat": 45.1812869561565}, "commune": "Saint-Martin-d'H\u00e8res", "code_commune": "38421", "departement": "Is\u00e8re", "code_departement": "38", "region": "Auvergne-Rh\u00f4ne-Alpes", "code_region": "84"},{"type_de_point": "Distributeur automatique de billets", "adresse": null, "arrondissement": null, "horaire": null, "acces_pmr": null, "relais_bebe": null, "geo_point_2d": {"lon": 2.2227454801112, "lat": 48.888436851938}, "commune": "Nanterre", "code_commune": "92050", "departement": "Hauts-de-Seine", "code_departement": "92", "region": "\u00cele-de-France", "code_region": "11"},{"type_de_point": "Distributeur automatique de billets", "adresse": null, "arrondissement": null, "horaire": null, "acces_pmr": null, "relais_bebe": null, "geo_point_2d": {"lon": 5.34770237923877, "lat": 45.9004324554958}, "commune": "Lagnieu", "code_commune": "01202", "departement": "Ain", "code_departement": "01", "region": "Auvergne-Rh\u00f4ne-Alpes", "code_region": "84"},{"type_de_point": "Distributeur automatique de billets", "adresse": null, "arrondissement": null, "horaire": null, "acces_pmr": null, "relais_bebe": null, "geo_point_2d": {"lon": 6.16583287445823, "lat": 48.6879573183675}, "commune": "Nancy", "code_commune": "54395", "departement": "Meurthe-et-Moselle", "code_departement": "54", "region": "Grand Est", "code_region": "44"},{"type_de_point": "Distributeur automatique de billets", "adresse": null, "arrondissement": null, "horaire": null, "acces_pmr": null, "relais_bebe": null, "geo_point_2d": {"lon": 1.87324752659902, "lat": 48.8935789818969}, "commune": "Mareil-sur-Mauldre", "code_commune": "78368", "departement": "Yvelines", "code_departement": "78", "region": "\u00cele-de-France", "code_region": "11"},{"type_de_point": "Distributeur automatique de billets", "adresse": null, "arrondissement": null, "horaire": null, "acces_pmr": null, "relais_bebe": null, "geo_point_2d": {"lon": 3.92462897722882, "lat": 49.4501694553074}, "commune": "Juvincourt-et-Damary", "code_commune": "02399", "departement": "Aisne", "code_departement": "02", "region": "Hauts-de-France", "code_region": "32"},{"type_de_point": "Distributeur automatique de billets", "adresse": null, "arrondissement": null, "horaire": null, "acces_pmr": null, "relais_bebe": null, "geo_point_2d": {"lon": 1.44751172131507, "lat": 43.6018142817274}, "commune": "Toulouse", "code_commune": "31555", "departement": "Haute-Garonne", "code_departement": "31", "region": "Occitanie", "code_region": "76"},{"type_de_point": "Distributeur automatique de billets", "adresse": null, "arrondissement": null, "horaire": null, "acces_pmr": null, "relais_bebe": null, "geo_point_2d": {"lon": 5.35931299151471, "lat": 43.3463248205433}, "commune": "Marseille 15e Arrondissement", "code_commune": "13215", "departement": "Bouches-du-Rh\u00f4ne", "code_departement": "13", "region": "Provence-Alpes-C\u00f4te d'Azur", "code_region": "93"},{"type_de_point": "Distributeur automatique de billets", "adresse": null, "arrondissement": null, "horaire": null, "acces_pmr": null, "relais_bebe": null, "geo_point_2d": {"lon": 5.04364456684891, "lat": 47.3212842340696}, "commune": "Dijon", "code_commune": "21231", "departement": "C\u00f4te-d'Or", "code_departement": "21", "region": "Bourgogne-Franche-Comt\u00e9", "code_region": "27"},{"type_de_point": "Distributeur automatique de billets", "adresse": null, "arrondissement": null, "horaire": null, "acces_pmr": null, "relais_bebe": null, "geo_point_2d": {"lon": -1.55894333948791, "lat": 47.2142354282413}, "commune": "Nantes", "code_commune": "44109", "departement": "Loire-Atlantique", "code_departement": "44", "region": "Pays de la Loire", "code_region": "52"},{"type_de_point": "Distributeur automatique de billets", "adresse": null, "arrondissement": null, "horaire": null, "acces_pmr": null, "relais_bebe": null, "geo_point_2d": {"lon": 3.09107569635106, "lat": 50.6588675532087}, "commune": "Marcq-en-Bar\u0153ul", "code_commune": "59378", "departement": "Nord", "code_departement": "59", "region": "Hauts-de-France", "code_region": "32"},{"type_de_point": "Distributeur automatique de billets", "adresse": null, "arrondissement": null, "horaire": null, "acces_pmr": null, "relais_bebe": null, "geo_point_2d": {"lon": 3.01285309372679, "lat": 50.4813517521245}, "commune": "Libercourt", "code_commune": "62907", "departement": "Pas-de-Calais", "code_departement": "62", "region": "Hauts-de-France", "code_region": "32"},{"type_de_point": "Distributeur automatique de billets", "adresse": null, "arrondissement": null, "horaire": null, "acces_pmr": null, "relais_bebe": null, "geo_point_2d": {"lon": -1.48759557384659, "lat": 47.0550996320741}, "commune": "Montbert", "code_commune": "44102", "departement": "Loire-Atlantique", "code_departement": "44", "region": "Pays de la Loire", "code_region": "52"},{"type_de_point": "Distributeur automatique de billets", "adresse": null, "arrondissement": null, "horaire": null, "acces_pmr": null, "relais_bebe": null, "geo_point_2d": {"lon": -0.51260304133379, "lat": 44.9023029365579}, "commune": "Bassens", "code_commune": "33032", "departement": "Gironde", "code_departement": "33", "region": "Nouvelle-Aquitaine", "code_region": "75"},{"type_de_point": "Distributeur automatique de billets", "adresse": null, "arrondissement": null, "horaire": null, "acces_pmr": null, "relais_bebe": null, "geo_point_2d": {"lon": 3.24538862925124, "lat": 50.4748577888218}, "commune": "Orchies", "code_commune": "59449", "departement": "Nord", "code_departement": "59", "region": "Hauts-de-France", "code_region": "32"},{"type_de_point": "Distributeur automatique de billets", "adresse": null, "arrondissement": null, "horaire": null, "acces_pmr": null, "relais_bebe": null, "geo_point_2d": {"lon": 5.12963602024857, "lat": 44.0571511971638}, "commune": "Mazan", "code_commune": "84072", "departement": "Vaucluse", "code_departement": "84", "region": "Provence-Alpes-C\u00f4te d'Azur", "code_region": "93"},{"type_de_point": "Distributeur automatique de billets", "adresse": null, "arrondissement": null, "horaire": null, "acces_pmr": null, "relais_bebe": null, "geo_point_2d": {"lon": 2.43259111992592, "lat": 49.5062386878441}, "commune": "Saint-Just-en-Chauss\u00e9e", "code_commune": "60581", "departement": "Oise", "code_departement": "60", "region": "Hauts-de-France", "code_region": "32"},{"type_de_point": "Distributeur automatique de billets", "adresse": null, "arrondissement": null, "horaire": null, "acces_pmr": null, "relais_bebe": null, "geo_point_2d": {"lon": 2.37354471920105, "lat": 48.8886866326526}, "commune": "Paris 19e Arrondissement", "code_commune": "75119", "departement": "Paris", "code_departement": "75", "region": "\u00cele-de-France", "code_region": "11"},{"type_de_point": "Distributeur automatique de billets", "adresse": null, "arrondissement": null, "horaire": null, "acces_pmr": null, "relais_bebe": null, "geo_point_2d": {"lon": -2.57759410432737, "lat": 47.5199520192692}, "commune": "Damgan", "code_commune": "56052", "departement": "Morbihan", "code_departement": "56", "region": "Bretagne", "code_region": "53"},{"type_de_point": "Distributeur automatique de billets", "adresse": null, "arrondissement": null, "horaire": null, "acces_pmr": null, "relais_bebe": null, "geo_point_2d": {"lon": -2.39199295180401, "lat": 47.2846094681909}, "commune": "La Baule-Escoublac", "code_commune": "44055", "departement": "Loire-Atlantique", "code_departement": "44", "region": "Pays de la Loire", "code_region": "52"},{"type_de_point": "Distributeur automatique de billets", "adresse": null, "arrondissement": null, "horaire": null, "acces_pmr": null, "relais_bebe": null, "geo_point_2d": {"lon": 2.03316753362714, "lat": 49.0501269492783}, "commune": "Cergy", "code_commune": "95127", "departement": "Val-d'Oise", "code_departement": "95", "region": "\u00cele-de-France", "code_region": "11"},{"type_de_point": "Distributeur automatique de billets", "adresse": null, "arrondissement": null, "horaire": null, "acces_pmr": null, "relais_bebe": null, "geo_point_2d": {"lon": -0.633676866647164, "lat": 45.7473281930332}, "commune": "Saintes", "code_commune": "17415", "departement": "Charente-Maritime", "code_departement": "17", "region": "Nouvelle-Aquitaine", "code_region": "75"},{"type_de_point": "Distributeur automatique de billets", "adresse": null, "arrondissement": null, "horaire": null, "acces_pmr": null, "relais_bebe": null, "geo_point_2d": {"lon": 2.26620338495201, "lat": 48.6314282546227}, "commune": "Linas", "code_commune": "91339", "departement": "Essonne", "code_departement": "91", "region": "\u00cele-de-France", "code_region": "11"},{"type_de_point": "Distributeur automatique de billets", "adresse": null, "arrondissement": null, "horaire": null, "acces_pmr": null, "relais_bebe": null, "geo_point_2d": {"lon": 3.14318003722954, "lat": 43.3135842685572}, "commune": "Colombiers", "code_commune": "34081", "departement": "H\u00e9rault", "code_departement": "34", "region": "Occitanie", "code_region": "76"},{"type_de_point": "Distributeur automatique de billets", "adresse": null, "arrondissement": null, "horaire": null, "acces_pmr": null, "relais_bebe": null, "geo_point_2d": {"lon": -1.54313590829298, "lat": 46.2281875845378}, "commune": "Saint-Cl\u00e9ment-des-Baleines", "code_commune": "17318", "departement": "Charente-Maritime", "code_departement": "17", "region": "Nouvelle-Aquitaine", "code_region": "75"},{"type_de_point": "Distributeur automatique de billets", "adresse": null, "arrondissement": null, "horaire": null, "acces_pmr": null, "relais_bebe": null, "geo_point_2d": {"lon": 6.07507974568475, "lat": 44.6831508696497}, "commune": "Saint-Bonnet-en-Champsaur", "code_commune": "05132", "departement": "Hautes-Alpes", "code_departement": "05", "region": "Provence-Alpes-C\u00f4te d'Azur", "code_region": "93"},{"type_de_point": "Distributeur automatique de billets", "adresse": null, "arrondissement": null, "horaire": null, "acces_pmr": null, "relais_bebe": null, "geo_point_2d": {"lon": -1.46114446672581, "lat": 43.5383280707106}, "commune": "Tarnos", "code_commune": "40312", "departement": "Landes", "code_departement": "40", "region": "Nouvelle-Aquitaine", "code_region": "75"},{"type_de_point": "Distributeur automatique de billets", "adresse": null, "arrondissement": null, "horaire": null, "acces_pmr": null, "relais_bebe": null, "geo_point_2d": {"lon": 2.82636798569473, "lat": 49.4170136638382}, "commune": "Compi\u00e8gne", "code_commune": "60159", "departement": "Oise", "code_departement": "60", "region": "Hauts-de-France", "code_region": "32"},{"type_de_point": "Distributeur automatique de billets", "adresse": null, "arrondissement": null, "horaire": null, "acces_pmr": null, "relais_bebe": null, "geo_point_2d": {"lon": 3.09806804761647, "lat": 44.1533982443724}, "commune": "Aguessac", "code_commune": "12002", "departement": "Aveyron", "code_departement": "12", "region": "Occitanie", "code_region": "76"},{"type_de_point": "Distributeur automatique de billets", "adresse": null, "arrondissement": null, "horaire": null, "acces_pmr": null, "relais_bebe": null, "geo_point_2d": {"lon": -1.3607015226076, "lat": 43.6334947744191}, "commune": "B\u00e9nesse-Maremne", "code_commune": "40036", "departement": "Landes", "code_departement": "40", "region": "Nouvelle-Aquitaine", "code_region": "75"},{"type_de_point": "Distributeur automatique de billets", "adresse": null, "arrondissement": null, "horaire": null, "acces_pmr": null, "relais_bebe": null, "geo_point_2d": {"lon": 2.60356107372669, "lat": 46.3382575635459}, "commune": "Montlu\u00e7on", "code_commune": "03185", "departement": "Allier", "code_departement": "03", "region": "Auvergne-Rh\u00f4ne-Alpes", "code_region": "84"},{"type_de_point": "Distributeur automatique de billets", "adresse": null, "arrondissement": null, "horaire": null, "acces_pmr": null, "relais_bebe": null, "geo_point_2d": {"lon": 5.20420277198465, "lat": 43.3544292827218}, "commune": "Ensu\u00e8s-la-Redonne", "code_commune": "13033", "departement": "Bouches-du-Rh\u00f4ne", "code_departement": "13", "region": "Provence-Alpes-C\u00f4te d'Azur", "code_region": "93"},{"type_de_point": "Distributeur automatique de billets", "adresse": null, "arrondissement": null, "horaire": null, "acces_pmr": null, "relais_bebe": null, "geo_point_2d": {"lon": 4.17396394218878, "lat": 46.158209421875}, "commune": "Charlieu", "code_commune": "42052", "departement": "Loire", "code_departement": "42", "region": "Auvergne-Rh\u00f4ne-Alpes", "code_region": "84"},{"type_de_point": "Distributeur automatique de billets", "adresse": null, "arrondissement": null, "horaire": null, "acces_pmr": null, "relais_bebe": null, "geo_point_2d": {"lon": 2.34152056847924, "lat": 48.826053950836}, "commune": "Paris 14e Arrondissement", "code_commune": "75114", "departement": "Paris", "code_departement": "75", "region": "\u00cele-de-France", "code_region": "11"},{"type_de_point": "Distributeur automatique de billets", "adresse": null, "arrondissement": null, "horaire": null, "acces_pmr": null, "relais_bebe": null, "geo_point_2d": {"lon": 2.46968833372446, "lat": 49.2633675951544}, "commune": "Creil", "code_commune": "60175", "departement": "Oise", "code_departement": "60", "region": "Hauts-de-France", "code_region": "32"},{"type_de_point": "Distributeur automatique de billets", "adresse": null, "arrondissement": null, "horaire": null, "acces_pmr": null, "relais_bebe": null, "geo_point_2d": {"lon": -1.67277478136421, "lat": 48.1045826410041}, "commune": "Rennes", "code_commune": "35238", "departement": "Ille-et-Vilaine", "code_departement": "35", "region": "Bretagne", "code_region": "53"},{"type_de_point": "Distributeur automatique de billets", "adresse": null, "arrondissement": null, "horaire": null, "acces_pmr": null, "relais_bebe": null, "geo_point_2d": {"lon": -0.578299979312646, "lat": 44.8307584476491}, "commune": "Bordeaux", "code_commune": "33063", "departement": "Gironde", "code_departement": "33", "region": "Nouvelle-Aquitaine", "code_region": "75"},{"type_de_point": "Distributeur automatique de billets", "adresse": null, "arrondissement": null, "horaire": null, "acces_pmr": null, "relais_bebe": null, "geo_point_2d": {"lon": 7.56996007399187, "lat": 48.7568075283202}, "commune": "Hochfelden", "code_commune": "67202", "departement": "Bas-Rhin", "code_departement": "67", "region": "Grand Est", "code_region": "44"},{"type_de_point": "Distributeur automatique de billets", "adresse": null, "arrondissement": null, "horaire": null, "acces_pmr": null, "relais_bebe": null, "geo_point_2d": {"lon": 2.39961889213612, "lat": 48.9111191201159}, "commune": "Aubervilliers", "code_commune": "93001", "departement": "Seine-Saint-Denis", "code_departement": "93", "region": "\u00cele-de-France", "code_region": "11"},{"type_de_point": "Distributeur automatique de billets", "adresse": null, "arrondissement": null, "horaire": null, "acces_pmr": null, "relais_bebe": null, "geo_point_2d": {"lon": -1.47663824710398, "lat": 43.4907232192747}, "commune": "Bayonne", "code_commune": "64102", "departement": "Pyr\u00e9n\u00e9es-Atlantiques", "code_departement": "64", "region": "Nouvelle-Aquitaine", "code_region": "75"},{"type_de_point": "Distributeur automatique de billets", "adresse": null, "arrondissement": null, "horaire": null, "acces_pmr": null, "relais_bebe": null, "geo_point_2d": {"lon": 0.19041827468962, "lat": 47.9949838925923}, "commune": "Le Mans", "code_commune": "72181", "departement": "Sarthe", "code_departement": "72", "region": "Pays de la Loire", "code_region": "52"},{"type_de_point": "Distributeur automatique de billets", "adresse": null, "arrondissement": null, "horaire": null, "acces_pmr": null, "relais_bebe": null, "geo_point_2d": {"lon": 6.31656262757079, "lat": 46.2691832215023}, "commune": "Loisin", "code_commune": "74150", "departement": "Haute-Savoie", "code_departement": "74", "region": "Auvergne-Rh\u00f4ne-Alpes", "code_region": "84"},{"type_de_point": "Distributeur automatique de billets", "adresse": null, "arrondissement": null, "horaire": null, "acces_pmr": null, "relais_bebe": null, "geo_point_2d": {"lon": 4.8793073806674, "lat": 45.7688543453063}, "commune": "Villeurbanne", "code_commune": "69266", "departement": "Rh\u00f4ne", "code_departement": "69", "region": "Auvergne-Rh\u00f4ne-Alpes", "code_region": "84"},{"type_de_point": "Distributeur automatique de billets", "adresse": null, "arrondissement": null, "horaire": null, "acces_pmr": null, "relais_bebe": null, "geo_point_2d": {"lon": 0.0394886970054245, "lat": 45.2730136429836}, "commune": "Chalais", "code_commune": "16073", "departement": "Charente", "code_departement": "16", "region": "Nouvelle-Aquitaine", "code_region": "75"},{"type_de_point": "Distributeur automatique de billets", "adresse": null, "arrondissement": null, "horaire": null, "acces_pmr": null, "relais_bebe": null, "geo_point_2d": {"lon": 6.1245663343831, "lat": 45.9035785190329}, "commune": "Annecy", "code_commune": "74010", "departement": "Haute-Savoie", "code_departement": "74", "region": "Auvergne-Rh\u00f4ne-Alpes", "code_region": "84"},{"type_de_point": "Distributeur automatique de billets", "adresse": null, "arrondissement": null, "horaire": null, "acces_pmr": null, "relais_bebe": null, "geo_point_2d": {"lon": 5.70848673301214, "lat": 46.8354939365661}, "commune": "Poligny", "code_commune": "39434", "departement": "Jura", "code_departement": "39", "region": "Bourgogne-Franche-Comt\u00e9", "code_region": "27"},{"type_de_point": "Distributeur automatique de billets", "adresse": null, "arrondissement": null, "horaire": null, "acces_pmr": null, "relais_bebe": null, "geo_point_2d": {"lon": 2.48318135381513, "lat": 50.5613489712887}, "commune": "Lillers", "code_commune": "62516", "departement": "Pas-de-Calais", "code_departement": "62", "region": "Hauts-de-France", "code_region": "32"},{"type_de_point": "Distributeur automatique de billets", "adresse": null, "arrondissement": null, "horaire": null, "acces_pmr": null, "relais_bebe": null, "geo_point_2d": {"lon": 2.32895307813698, "lat": 48.7978155705014}, "commune": "Cachan", "code_commune": "94016", "departement": "Val-de-Marne", "code_departement": "94", "region": "\u00cele-de-France", "code_region": "11"},{"type_de_point": "Distributeur automatique de billets", "adresse": null, "arrondissement": null, "horaire": null, "acces_pmr": null, "relais_bebe": null, "geo_point_2d": {"lon": 4.38921272442721, "lat": 45.4367990484792}, "commune": "Saint-\u00c9tienne", "code_commune": "42218", "departement": "Loire", "code_departement": "42", "region": "Auvergne-Rh\u00f4ne-Alpes", "code_region": "84"},{"type_de_point": "Distributeur automatique de billets", "adresse": null, "arrondissement": null, "horaire": null, "acces_pmr": null, "relais_bebe": null, "geo_point_2d": {"lon": 2.82228733995373, "lat": 49.4223112781009}, "commune": "Compi\u00e8gne", "code_commune": "60159", "departement": "Oise", "code_departement": "60", "region": "Hauts-de-France", "code_region": "32"},{"type_de_point": "Distributeur automatique de billets", "adresse": null, "arrondissement": null, "horaire": null, "acces_pmr": null, "relais_bebe": null, "geo_point_2d": {"lon": -4.39023221430438, "lat": 48.4063405429822}, "commune": "Le Relecq-Kerhuon", "code_commune": "29235", "departement": "Finist\u00e8re", "code_departement": "29", "region": "Bretagne", "code_region": "53"},{"type_de_point": "Distributeur automatique de billets", "adresse": null, "arrondissement": null, "horaire": null, "acces_pmr": null, "relais_bebe": null, "geo_point_2d": {"lon": 2.191222148104, "lat": 48.7049466817289}, "commune": "Orsay", "code_commune": "91471", "departement": "Essonne", "code_departement": "91", "region": "\u00cele-de-France", "code_region": "11"},{"type_de_point": "Distributeur automatique de billets", "adresse": null, "arrondissement": null, "horaire": null, "acces_pmr": null, "relais_bebe": null, "geo_point_2d": {"lon": 4.91172732485705, "lat": 46.5631188799818}, "commune": "Tournus", "code_commune": "71543", "departement": "Sa\u00f4ne-et-Loire", "code_departement": "71", "region": "Bourgogne-Franche-Comt\u00e9", "code_region": "27"},{"type_de_point": "Distributeur automatique de billets", "adresse": null, "arrondissement": null, "horaire": null, "acces_pmr": null, "relais_bebe": null, "geo_point_2d": {"lon": 1.32670075248521, "lat": 45.2466148389386}, "commune": "Ayen", "code_commune": "19015", "departement": "Corr\u00e8ze", "code_departement": "19", "region": "Nouvelle-Aquitaine", "code_region": "75"},{"type_de_point": "Distributeur automatique de billets", "adresse": null, "arrondissement": null, "horaire": null, "acces_pmr": null, "relais_bebe": null, "geo_point_2d": {"lon": 0.634011389408641, "lat": 44.1778683724972}, "commune": "Bo\u00e9", "code_commune": "47031", "departement": "Lot-et-Garonne", "code_departement": "47", "region": "Nouvelle-Aquitaine", "code_region": "75"},{"type_de_point": "Distributeur automatique de billets", "adresse": null, "arrondissement": null, "horaire": null, "acces_pmr": null, "relais_bebe": null, "geo_point_2d": {"lon": -1.59539657166567, "lat": 46.7332101588729}, "commune": "Aizenay", "code_commune": "85003", "departement": "Vend\u00e9e", "code_departement": "85", "region": "Pays de la Loire", "code_region": "52"},{"type_de_point": "Distributeur automatique de billets", "adresse": null, "arrondissement": null, "horaire": null, "acces_pmr": null, "relais_bebe": null, "geo_point_2d": {"lon": 1.96046055856721, "lat": 48.8289984296018}, "commune": "Plaisir", "code_commune": "78490", "departement": "Yvelines", "code_departement": "78", "region": "\u00cele-de-France", "code_region": "11"},{"type_de_point": "Distributeur automatique de billets", "adresse": null, "arrondissement": null, "horaire": null, "acces_pmr": null, "relais_bebe": null, "geo_point_2d": {"lon": 2.55201966146535, "lat": 48.6333584392855}, "commune": "Lieusaint", "code_commune": "77251", "departement": "Seine-et-Marne", "code_departement": "77", "region": "\u00cele-de-France", "code_region": "11"},{"type_de_point": "Distributeur automatique de billets", "adresse": null, "arrondissement": null, "horaire": null, "acces_pmr": null, "relais_bebe": null, "geo_point_2d": {"lon": 8.73688352084758, "lat": 41.920662164824}, "commune": "Ajaccio", "code_commune": "2A004", "departement": "Corse-du-Sud", "code_departement": "2A", "region": "Corse", "code_region": "94"},{"type_de_point": "Distributeur automatique de billets", "adresse": null, "arrondissement": null, "horaire": null, "acces_pmr": null, "relais_bebe": null, "geo_point_2d": {"lon": 1.28379705908225, "lat": 43.6176959765845}, "commune": "Pibrac", "code_commune": "31417", "departement": "Haute-Garonne", "code_departement": "31", "region": "Occitanie", "code_region": "76"},{"type_de_point": "Distributeur automatique de billets", "adresse": null, "arrondissement": null, "horaire": null, "acces_pmr": null, "relais_bebe": null, "geo_point_2d": {"lon": 2.26760609644811, "lat": 48.9035763292691}, "commune": "Courbevoie", "code_commune": "92026", "departement": "Hauts-de-Seine", "code_departement": "92", "region": "\u00cele-de-France", "code_region": "11"},{"type_de_point": "Distributeur automatique de billets", "adresse": null, "arrondissement": null, "horaire": null, "acces_pmr": null, "relais_bebe": null, "geo_point_2d": {"lon": 6.15643102858056, "lat": 48.6847841678769}, "commune": "Laxou", "code_commune": "54304", "departement": "Meurthe-et-Moselle", "code_departement": "54", "region": "Grand Est", "code_region": "44"},{"type_de_point": "Distributeur automatique de billets", "adresse": null, "arrondissement": null, "horaire": null, "acces_pmr": null, "relais_bebe": null, "geo_point_2d": {"lon": 7.25749764347091, "lat": 43.6955830516247}, "commune": "Nice", "code_commune": "06088", "departement": "Alpes-Maritimes", "code_departement": "06", "region": "Provence-Alpes-C\u00f4te d'Azur", "code_region": "93"},{"type_de_point": "Distributeur automatique de billets", "adresse": null, "arrondissement": null, "horaire": null, "acces_pmr": null, "relais_bebe": null, "geo_point_2d": {"lon": 4.87512967248764, "lat": 45.5244477717743}, "commune": "Vienne", "code_commune": "38544", "departement": "Is\u00e8re", "code_departement": "38", "region": "Auvergne-Rh\u00f4ne-Alpes", "code_region": "84"},{"type_de_point": "Distributeur automatique de billets", "adresse": null, "arrondissement": null, "horaire": null, "acces_pmr": null, "relais_bebe": null, "geo_point_2d": {"lon": 2.34039487888302, "lat": 48.8696239217222}, "commune": "Paris 2e Arrondissement", "code_commune": "75102", "departement": "Paris", "code_departement": "75", "region": "\u00cele-de-France", "code_region": "11"},{"type_de_point": "Distributeur automatique de billets", "adresse": null, "arrondissement": null, "horaire": null, "acces_pmr": null, "relais_bebe": null, "geo_point_2d": {"lon": -0.626474716345314, "lat": 44.9533234973561}, "commune": "Le Pian-M\u00e9doc", "code_commune": "33322", "departement": "Gironde", "code_departement": "33", "region": "Nouvelle-Aquitaine", "code_region": "75"},{"type_de_point": "Distributeur automatique de billets", "adresse": null, "arrondissement": null, "horaire": null, "acces_pmr": null, "relais_bebe": null, "geo_point_2d": {"lon": 1.05065207537805, "lat": 49.4088630173732}, "commune": "Le Grand-Quevilly", "code_commune": "76322", "departement": "Seine-Maritime", "code_departement": "76", "region": "Normandie", "code_region": "28"},{"type_de_point": "Distributeur automatique de billets", "adresse": null, "arrondissement": null, "horaire": null, "acces_pmr": null, "relais_bebe": null, "geo_point_2d": {"lon": 2.50738493741898, "lat": 48.753574125352}, "commune": "Boissy-Saint-L\u00e9ger", "code_commune": "94004", "departement": "Val-de-Marne", "code_departement": "94", "region": "\u00cele-de-France", "code_region": "11"},{"type_de_point": "Distributeur automatique de billets", "adresse": null, "arrondissement": null, "horaire": null, "acces_pmr": null, "relais_bebe": null, "geo_point_2d": {"lon": 6.17785445144679, "lat": 48.6917247323869}, "commune": "Nancy", "code_commune": "54395", "departement": "Meurthe-et-Moselle", "code_departement": "54", "region": "Grand Est", "code_region": "44"},{"type_de_point": "Distributeur automatique de billets", "adresse": null, "arrondissement": null, "horaire": null, "acces_pmr": null, "relais_bebe": null, "geo_point_2d": {"lon": 6.85951348140412, "lat": 47.6122117951381}, "commune": "Danjoutin", "code_commune": "90032", "departement": "Territoire de Belfort", "code_departement": "90", "region": "Bourgogne-Franche-Comt\u00e9", "code_region": "27"},{"type_de_point": "Distributeur automatique de billets", "adresse": null, "arrondissement": null, "horaire": null, "acces_pmr": null, "relais_bebe": null, "geo_point_2d": {"lon": 2.50720204429172, "lat": 48.7537068946983}, "commune": "Boissy-Saint-L\u00e9ger", "code_commune": "94004", "departement": "Val-de-Marne", "code_departement": "94", "region": "\u00cele-de-France", "code_region": "11"},{"type_de_point": "Distributeur automatique de billets", "adresse": null, "arrondissement": null, "horaire": null, "acces_pmr": null, "relais_bebe": null, "geo_point_2d": {"lon": -3.25894602135244, "lat": 47.7984310292015}, "commune": "Hennebont", "code_commune": "56083", "departement": "Morbihan", "code_departement": "56", "region": "Bretagne", "code_region": "53"},{"type_de_point": "Distributeur automatique de billets", "adresse": null, "arrondissement": null, "horaire": null, "acces_pmr": null, "relais_bebe": null, "geo_point_2d": {"lon": 2.27783654454751, "lat": 48.7248812782275}, "commune": "Massy", "code_commune": "91377", "departement": "Essonne", "code_departement": "91", "region": "\u00cele-de-France", "code_region": "11"},{"type_de_point": "Distributeur automatique de billets", "adresse": null, "arrondissement": null, "horaire": null, "acces_pmr": null, "relais_bebe": null, "geo_point_2d": {"lon": 2.3353585285422, "lat": 48.8531575891188}, "commune": "Paris 6e Arrondissement", "code_commune": "75106", "departement": "Paris", "code_departement": "75", "region": "\u00cele-de-France", "code_region": "11"},{"type_de_point": "Distributeur automatique de billets", "adresse": null, "arrondissement": null, "horaire": null, "acces_pmr": null, "relais_bebe": null, "geo_point_2d": {"lon": -2.66746000864995, "lat": 48.5135199388619}, "commune": "Hillion", "code_commune": "22081", "departement": "C\u00f4tes-d'Armor", "code_departement": "22", "region": "Bretagne", "code_region": "53"},{"type_de_point": "Distributeur automatique de billets", "adresse": null, "arrondissement": null, "horaire": null, "acces_pmr": null, "relais_bebe": null, "geo_point_2d": {"lon": 55.2235429729443, "lat": -21.0729487610901}, "commune": "Saint-Paul", "code_commune": "97415", "departement": "La R\u00e9union", "code_departement": "974", "region": "La R\u00e9union", "code_region": "04"},{"type_de_point": "Distributeur automatique de billets", "adresse": null, "arrondissement": null, "horaire": null, "acces_pmr": null, "relais_bebe": null, "geo_point_2d": {"lon": 6.01307109655934, "lat": 43.3105452419236}, "commune": "N\u00e9oules", "code_commune": "83088", "departement": "Var", "code_departement": "83", "region": "Provence-Alpes-C\u00f4te d'Azur", "code_region": "93"},{"type_de_point": "Distributeur automatique de billets", "adresse": null, "arrondissement": null, "horaire": null, "acces_pmr": null, "relais_bebe": null, "geo_point_2d": {"lon": -0.576881006924395, "lat": 44.8418270860659}, "commune": "Bordeaux", "code_commune": "33063", "departement": "Gironde", "code_departement": "33", "region": "Nouvelle-Aquitaine", "code_region": "75"},{"type_de_point": "Distributeur automatique de billets", "adresse": null, "arrondissement": null, "horaire": null, "acces_pmr": null, "relais_bebe": null, "geo_point_2d": {"lon": 6.16254515675746, "lat": 46.85678715575}, "commune": "Frasne", "code_commune": "25259", "departement": "Doubs", "code_departement": "25", "region": "Bourgogne-Franche-Comt\u00e9", "code_region": "27"},{"type_de_point": "Distributeur automatique de billets", "adresse": null, "arrondissement": null, "horaire": null, "acces_pmr": null, "relais_bebe": null, "geo_point_2d": {"lon": 2.25431994172777, "lat": 48.8814208637057}, "commune": "Neuilly-sur-Seine", "code_commune": "92051", "departement": "Hauts-de-Seine", "code_departement": "92", "region": "\u00cele-de-France", "code_region": "11"},{"type_de_point": "Distributeur automatique de billets", "adresse": null, "arrondissement": null, "horaire": null, "acces_pmr": null, "relais_bebe": null, "geo_point_2d": {"lon": 5.40712822872027, "lat": 43.3367552855091}, "commune": "Marseille 14e Arrondissement", "code_commune": "13214", "departement": "Bouches-du-Rh\u00f4ne", "code_departement": "13", "region": "Provence-Alpes-C\u00f4te d'Azur", "code_region": "93"},{"type_de_point": "Distributeur automatique de billets", "adresse": null, "arrondissement": null, "horaire": null, "acces_pmr": null, "relais_bebe": null, "geo_point_2d": {"lon": -1.46048087145155, "lat": 43.5356290978887}, "commune": "Tarnos", "code_commune": "40312", "departement": "Landes", "code_departement": "40", "region": "Nouvelle-Aquitaine", "code_region": "75"},{"type_de_point": "Distributeur automatique de billets", "adresse": null, "arrondissement": null, "horaire": null, "acces_pmr": null, "relais_bebe": null, "geo_point_2d": {"lon": 6.17787096379604, "lat": 48.7006109746744}, "commune": "Nancy", "code_commune": "54395", "departement": "Meurthe-et-Moselle", "code_departement": "54", "region": "Grand Est", "code_region": "44"},{"type_de_point": "Distributeur automatique de billets", "adresse": null, "arrondissement": null, "horaire": null, "acces_pmr": null, "relais_bebe": null, "geo_point_2d": {"lon": 2.18665828564505, "lat": 48.843731636086}, "commune": "Garches", "code_commune": "92033", "departement": "Hauts-de-Seine", "code_departement": "92", "region": "\u00cele-de-France", "code_region": "11"},{"type_de_point": "Distributeur automatique de billets", "adresse": null, "arrondissement": null, "horaire": null, "acces_pmr": null, "relais_bebe": null, "geo_point_2d": {"lon": 55.6761501539741, "lat": -20.9946462789286}, "commune": "Bras-Panon", "code_commune": "97402", "departement": "La R\u00e9union", "code_departement": "974", "region": "La R\u00e9union", "code_region": "04"},{"type_de_point": "Distributeur automatique de billets", "adresse": null, "arrondissement": null, "horaire": null, "acces_pmr": null, "relais_bebe": null, "geo_point_2d": {"lon": 3.04743816732523, "lat": 42.5519904646144}, "commune": "Argel\u00e8s-sur-Mer", "code_commune": "66008", "departement": "Pyr\u00e9n\u00e9es-Orientales", "code_departement": "66", "region": "Occitanie", "code_region": "76"},{"type_de_point": "Distributeur automatique de billets", "adresse": null, "arrondissement": null, "horaire": null, "acces_pmr": null, "relais_bebe": null, "geo_point_2d": {"lon": 2.24909675876518, "lat": 48.8957002739521}, "commune": "Courbevoie", "code_commune": "92026", "departement": "Hauts-de-Seine", "code_departement": "92", "region": "\u00cele-de-France", "code_region": "11"},{"type_de_point": "Distributeur automatique de billets", "adresse": null, "arrondissement": null, "horaire": null, "acces_pmr": null, "relais_bebe": null, "geo_point_2d": {"lon": 4.90065407639358, "lat": 45.7054016619022}, "commune": "Saint-Priest", "code_commune": "69290", "departement": "Rh\u00f4ne", "code_departement": "69", "region": "Auvergne-Rh\u00f4ne-Alpes", "code_region": "84"},{"type_de_point": "Distributeur automatique de billets", "adresse": null, "arrondissement": null, "horaire": null, "acces_pmr": null, "relais_bebe": null, "geo_point_2d": {"lon": 4.80493249069494, "lat": 45.7356514475412}, "commune": "Sainte-Foy-l\u00e8s-Lyon", "code_commune": "69202", "departement": "Rh\u00f4ne", "code_departement": "69", "region": "Auvergne-Rh\u00f4ne-Alpes", "code_region": "84"},{"type_de_point": "Distributeur automatique de billets", "adresse": null, "arrondissement": null, "horaire": null, "acces_pmr": null, "relais_bebe": null, "geo_point_2d": {"lon": 1.11612982658892, "lat": 49.4707424175516}, "commune": "Bois-Guillaume", "code_commune": "76108", "departement": "Seine-Maritime", "code_departement": "76", "region": "Normandie", "code_region": "28"},{"type_de_point": "Distributeur automatique de billets", "adresse": null, "arrondissement": null, "horaire": null, "acces_pmr": null, "relais_bebe": null, "geo_point_2d": {"lon": -0.236945547647736, "lat": 46.6458518685227}, "commune": "Parthenay", "code_commune": "79202", "departement": "Deux-S\u00e8vres", "code_departement": "79", "region": "Nouvelle-Aquitaine", "code_region": "75"},{"type_de_point": "Distributeur automatique de billets", "adresse": null, "arrondissement": null, "horaire": null, "acces_pmr": null, "relais_bebe": null, "geo_point_2d": {"lon": 3.7713209507001, "lat": 46.6206759841507}, "commune": "Bourbon-Lancy", "code_commune": "71047", "departement": "Sa\u00f4ne-et-Loire", "code_departement": "71", "region": "Bourgogne-Franche-Comt\u00e9", "code_region": "27"},{"type_de_point": "Distributeur automatique de billets", "adresse": null, "arrondissement": null, "horaire": null, "acces_pmr": null, "relais_bebe": null, "geo_point_2d": {"lon": 2.82037391909728, "lat": 49.4236799590701}, "commune": "Margny-l\u00e8s-Compi\u00e8gne", "code_commune": "60382", "departement": "Oise", "code_departement": "60", "region": "Hauts-de-France", "code_region": "32"},{"type_de_point": "Distributeur automatique de billets", "adresse": null, "arrondissement": null, "horaire": null, "acces_pmr": null, "relais_bebe": null, "geo_point_2d": {"lon": 4.80357403564761, "lat": 44.1525596349599}, "commune": "Orange", "code_commune": "84087", "departement": "Vaucluse", "code_departement": "84", "region": "Provence-Alpes-C\u00f4te d'Azur", "code_region": "93"},{"type_de_point": "Distributeur automatique de billets", "adresse": null, "arrondissement": null, "horaire": null, "acces_pmr": null, "relais_bebe": null, "geo_point_2d": {"lon": 5.92603073179655, "lat": 43.177030744463}, "commune": "Le Revest-les-Eaux", "code_commune": "83103", "departement": "Var", "code_departement": "83", "region": "Provence-Alpes-C\u00f4te d'Azur", "code_region": "93"},{"type_de_point": "Distributeur automatique de billets", "adresse": null, "arrondissement": null, "horaire": null, "acces_pmr": null, "relais_bebe": null, "geo_point_2d": {"lon": 5.40119392509246, "lat": 43.3075499688245}, "commune": "Marseille 4e Arrondissement", "code_commune": "13204", "departement": "Bouches-du-Rh\u00f4ne", "code_departement": "13", "region": "Provence-Alpes-C\u00f4te d'Azur", "code_region": "93"},{"type_de_point": "Distributeur automatique de billets", "adresse": null, "arrondissement": null, "horaire": null, "acces_pmr": null, "relais_bebe": null, "geo_point_2d": {"lon": 2.91878718536202, "lat": 46.8318771453467}, "commune": "Sancoins", "code_commune": "18242", "departement": "Cher", "code_departement": "18", "region": "Centre-Val de Loire", "code_region": "24"},{"type_de_point": "Distributeur automatique de billets", "adresse": null, "arrondissement": null, "horaire": null, "acces_pmr": null, "relais_bebe": null, "geo_point_2d": {"lon": 2.88787623520068, "lat": 43.9579224555393}, "commune": "Saint-Affrique", "code_commune": "12208", "departement": "Aveyron", "code_departement": "12", "region": "Occitanie", "code_region": "76"},{"type_de_point": "Distributeur automatique de billets", "adresse": null, "arrondissement": null, "horaire": null, "acces_pmr": null, "relais_bebe": null, "geo_point_2d": {"lon": -0.56485766973617, "lat": 44.881154891937}, "commune": "Bordeaux", "code_commune": "33063", "departement": "Gironde", "code_departement": "33", "region": "Nouvelle-Aquitaine", "code_region": "75"},{"type_de_point": "Distributeur automatique de billets", "adresse": null, "arrondissement": null, "horaire": null, "acces_pmr": null, "relais_bebe": null, "geo_point_2d": {"lon": 7.37842755150677, "lat": 47.8015039187239}, "commune": "Baldersheim", "code_commune": "68015", "departement": "Haut-Rhin", "code_departement": "68", "region": "Grand Est", "code_region": "44"},{"type_de_point": "Distributeur automatique de billets", "adresse": null, "arrondissement": null, "horaire": null, "acces_pmr": null, "relais_bebe": null, "geo_point_2d": {"lon": 1.61111062946506, "lat": 43.1162200369392}, "commune": "Pamiers", "code_commune": "09225", "departement": "Ari\u00e8ge", "code_departement": "09", "region": "Occitanie", "code_region": "76"},{"type_de_point": "Distributeur automatique de billets", "adresse": null, "arrondissement": null, "horaire": null, "acces_pmr": null, "relais_bebe": null, "geo_point_2d": {"lon": 3.06711803778632, "lat": 50.6242563280723}, "commune": "Lille", "code_commune": "59350", "departement": "Nord", "code_departement": "59", "region": "Hauts-de-France", "code_region": "32"},{"type_de_point": "Distributeur automatique de billets", "adresse": null, "arrondissement": null, "horaire": null, "acces_pmr": null, "relais_bebe": null, "geo_point_2d": {"lon": -0.880736647809698, "lat": 47.5198569684872}, "commune": "Val d'Erdre-Auxence", "code_commune": "49183", "departement": "Maine-et-Loire", "code_departement": "49", "region": "Pays de la Loire", "code_region": "52"},{"type_de_point": "Distributeur automatique de billets", "adresse": null, "arrondissement": null, "horaire": null, "acces_pmr": null, "relais_bebe": null, "geo_point_2d": {"lon": -2.96591007635965, "lat": 48.0653299369854}, "commune": "Pontivy", "code_commune": "56178", "departement": "Morbihan", "code_departement": "56", "region": "Bretagne", "code_region": "53"},{"type_de_point": "Distributeur automatique de billets", "adresse": null, "arrondissement": null, "horaire": null, "acces_pmr": null, "relais_bebe": null, "geo_point_2d": {"lon": -0.358569812542498, "lat": 47.5740050688165}, "commune": "Seiches-sur-le-Loir", "code_commune": "49333", "departement": "Maine-et-Loire", "code_departement": "49", "region": "Pays de la Loire", "code_region": "52"},{"type_de_point": "Distributeur automatique de billets", "adresse": null, "arrondissement": null, "horaire": null, "acces_pmr": null, "relais_bebe": null, "geo_point_2d": {"lon": 4.65664229050105, "lat": 43.8032259667499}, "commune": "Tarascon", "code_commune": "13108", "departement": "Bouches-du-Rh\u00f4ne", "code_departement": "13", "region": "Provence-Alpes-C\u00f4te d'Azur", "code_region": "93"},{"type_de_point": "Distributeur automatique de billets", "adresse": null, "arrondissement": null, "horaire": null, "acces_pmr": null, "relais_bebe": null, "geo_point_2d": {"lon": 3.42242724858772, "lat": 46.1270826377069}, "commune": "Vichy", "code_commune": "03310", "departement": "Allier", "code_departement": "03", "region": "Auvergne-Rh\u00f4ne-Alpes", "code_region": "84"},{"type_de_point": "Distributeur automatique de billets", "adresse": null, "arrondissement": null, "horaire": null, "acces_pmr": null, "relais_bebe": null, "geo_point_2d": {"lon": 5.89216373584301, "lat": 44.6885587897582}, "commune": "D\u00e9voluy", "code_commune": "05139", "departement": "Hautes-Alpes", "code_departement": "05", "region": "Provence-Alpes-C\u00f4te d'Azur", "code_region": "93"},{"type_de_point": "Distributeur automatique de billets", "adresse": null, "arrondissement": null, "horaire": null, "acces_pmr": null, "relais_bebe": null, "geo_point_2d": {"lon": -1.37105401121721, "lat": 46.2056864492875}, "commune": "Saint-Martin-de-R\u00e9", "code_commune": "17369", "departement": "Charente-Maritime", "code_departement": "17", "region": "Nouvelle-Aquitaine", "code_region": "75"},{"type_de_point": "Distributeur automatique de billets", "adresse": null, "arrondissement": null, "horaire": null, "acces_pmr": null, "relais_bebe": null, "geo_point_2d": {"lon": 7.75892798556296, "lat": 48.5663460454226}, "commune": "Strasbourg", "code_commune": "67482", "departement": "Bas-Rhin", "code_departement": "67", "region": "Grand Est", "code_region": "44"},{"type_de_point": "Distributeur automatique de billets", "adresse": null, "arrondissement": null, "horaire": null, "acces_pmr": null, "relais_bebe": null, "geo_point_2d": {"lon": -60.8644238299306, "lat": 14.469483773411}, "commune": "Le Marin", "code_commune": "97217", "departement": "Martinique", "code_departement": "972", "region": "Martinique", "code_region": "02"},{"type_de_point": "Distributeur automatique de billets", "adresse": null, "arrondissement": null, "horaire": null, "acces_pmr": null, "relais_bebe": null, "geo_point_2d": {"lon": 6.02472864749308, "lat": 46.2420194849737}, "commune": "Saint-Genis-Pouilly", "code_commune": "01354", "departement": "Ain", "code_departement": "01", "region": "Auvergne-Rh\u00f4ne-Alpes", "code_region": "84"},{"type_de_point": "Distributeur automatique de billets", "adresse": null, "arrondissement": null, "horaire": null, "acces_pmr": null, "relais_bebe": null, "geo_point_2d": {"lon": -0.59058717881274, "lat": 44.8114992649083}, "commune": "Talence", "code_commune": "33522", "departement": "Gironde", "code_departement": "33", "region": "Nouvelle-Aquitaine", "code_region": "75"},{"type_de_point": "Distributeur automatique de billets", "adresse": null, "arrondissement": null, "horaire": null, "acces_pmr": null, "relais_bebe": null, "geo_point_2d": {"lon": 1.43067834517169, "lat": 43.5974679296558}, "commune": "Toulouse", "code_commune": "31555", "departement": "Haute-Garonne", "code_departement": "31", "region": "Occitanie", "code_region": "76"},{"type_de_point": "Distributeur automatique de billets", "adresse": null, "arrondissement": null, "horaire": null, "acces_pmr": null, "relais_bebe": null, "geo_point_2d": {"lon": 5.25708403146831, "lat": 45.3934754217272}, "commune": "La C\u00f4te-Saint-Andr\u00e9", "code_commune": "38130", "departement": "Is\u00e8re", "code_departement": "38", "region": "Auvergne-Rh\u00f4ne-Alpes", "code_region": "84"},{"type_de_point": "Distributeur automatique de billets", "adresse": null, "arrondissement": null, "horaire": null, "acces_pmr": null, "relais_bebe": null, "geo_point_2d": {"lon": 4.75776894646111, "lat": 44.1026407915149}, "commune": "Caderousse", "code_commune": "84027", "departement": "Vaucluse", "code_departement": "84", "region": "Provence-Alpes-C\u00f4te d'Azur", "code_region": "93"},{"type_de_point": "Distributeur automatique de billets", "adresse": null, "arrondissement": null, "horaire": null, "acces_pmr": null, "relais_bebe": null, "geo_point_2d": {"lon": 6.31770172821206, "lat": 48.6349957602514}, "commune": "Varang\u00e9ville", "code_commune": "54549", "departement": "Meurthe-et-Moselle", "code_departement": "54", "region": "Grand Est", "code_region": "44"},{"type_de_point": "Distributeur automatique de billets", "adresse": null, "arrondissement": null, "horaire": null, "acces_pmr": null, "relais_bebe": null, "geo_point_2d": {"lon": 2.18833298989912, "lat": 43.7765979176531}, "commune": "R\u00e9almont", "code_commune": "81222", "departement": "Tarn", "code_departement": "81", "region": "Occitanie", "code_region": "76"},{"type_de_point": "Distributeur automatique de billets", "adresse": null, "arrondissement": null, "horaire": null, "acces_pmr": null, "relais_bebe": null, "geo_point_2d": {"lon": 2.34040133294846, "lat": 48.8808822426077}, "commune": "Paris 9e Arrondissement", "code_commune": "75109", "departement": "Paris", "code_departement": "75", "region": "\u00cele-de-France", "code_region": "11"},{"type_de_point": "Distributeur automatique de billets", "adresse": null, "arrondissement": null, "horaire": null, "acces_pmr": null, "relais_bebe": null, "geo_point_2d": {"lon": -1.36676323116365, "lat": 46.2049836267064}, "commune": "Saint-Martin-de-R\u00e9", "code_commune": "17369", "departement": "Charente-Maritime", "code_departement": "17", "region": "Nouvelle-Aquitaine", "code_region": "75"},{"type_de_point": "Distributeur automatique de billets", "adresse": null, "arrondissement": null, "horaire": null, "acces_pmr": null, "relais_bebe": null, "geo_point_2d": {"lon": 5.41245702366285, "lat": 43.4513590359438}, "commune": "Bouc-Bel-Air", "code_commune": "13015", "departement": "Bouches-du-Rh\u00f4ne", "code_departement": "13", "region": "Provence-Alpes-C\u00f4te d'Azur", "code_region": "93"},{"type_de_point": "Distributeur automatique de billets", "adresse": null, "arrondissement": null, "horaire": null, "acces_pmr": null, "relais_bebe": null, "geo_point_2d": {"lon": 1.29647644783185, "lat": 43.5662788679472}, "commune": "Plaisance-du-Touch", "code_commune": "31424", "departement": "Haute-Garonne", "code_departement": "31", "region": "Occitanie", "code_region": "76"},{"type_de_point": "Distributeur automatique de billets", "adresse": null, "arrondissement": null, "horaire": null, "acces_pmr": null, "relais_bebe": null, "geo_point_2d": {"lon": 7.77278302005166, "lat": 48.5673130655918}, "commune": "Strasbourg", "code_commune": "67482", "departement": "Bas-Rhin", "code_departement": "67", "region": "Grand Est", "code_region": "44"},{"type_de_point": "Distributeur automatique de billets", "adresse": null, "arrondissement": null, "horaire": null, "acces_pmr": null, "relais_bebe": null, "geo_point_2d": {"lon": 4.3616657672855, "lat": 48.9564551580008}, "commune": "Ch\u00e2lons-en-Champagne", "code_commune": "51108", "departement": "Marne", "code_departement": "51", "region": "Grand Est", "code_region": "44"},{"type_de_point": "Distributeur automatique de billets", "adresse": null, "arrondissement": null, "horaire": null, "acces_pmr": null, "relais_bebe": null, "geo_point_2d": {"lon": -1.32668633460594, "lat": 45.9154285184635}, "commune": "Saint-Pierre-d'Ol\u00e9ron", "code_commune": "17385", "departement": "Charente-Maritime", "code_departement": "17", "region": "Nouvelle-Aquitaine", "code_region": "75"},{"type_de_point": "Distributeur automatique de billets", "adresse": null, "arrondissement": null, "horaire": null, "acces_pmr": null, "relais_bebe": null, "geo_point_2d": {"lon": 2.17087449141707, "lat": 48.8864711280058},